{"type":"FeatureCollection","features":[{"type":"Feature","properties":{"name":"942738b5ad5e","address":"13428 Beach Ave, Marina Del Rey, CA 90292"},"geometry":{"type":"Point","coordinates":[-118.444745,33.990765]}},{"type":"Feature","properties":{"name":"638b1b2c6165","address":"2440 Tedlo St, Mississauga, ON L5A 3V3"},"geometry":{"type":"Point","coordinates":[-79.598884,43.588256]}},{"type":"Feature","properties":{"name":"b4acd339a3c4","address":"3 rue Meissonnier 93500 Pantin"},"geometry":{"type":"Point","coordinates":[2.412785,48.888618]}},{"type":"Feature","properties":{"name":"973a65eb56bf","address":"801 S Main St, Burbank, CA 91506"},"geometry":{"type":"Point","coordinates":[-118.312952,34.16523]}},{"type":"Feature","properties":{"name":"108c63c48cc4","address":"88 35th St 4th Floor, Brooklyn, NY 11232"},"geometry":{"type":"Point","coordinates":[-74.006785,40.656432]}},{"type":"Feature","properties":{"name":"5f2357548c08","address":"2602 W 16th St 4th floor, Chicago, IL 60608"},"geometry":{"type":"Point","coordinates":[-87.691056,41.859397]}},{"type":"Feature","properties":{"name":"ed452e599aa5","address":"Carrer del Consell de Cent, 201, 08011 Barcelona"},"geometry":{"type":"Point","coordinates":[2.156593,41.384402]}},{"type":"Feature","properties":{"name":"22460c30aa95","address":"P.O. Box 111046, Dubai"},"geometry":{"type":"Point","coordinates":[55.222494,25.140378]}},{"type":"Feature","properties":{"name":"adbff1176e35","address":"5625 Melrose Ave, Hollywood, CA 90038"},"geometry":{"type":"Point","coordinates":[-118.323093,34.083905]}},{"type":"Feature","properties":{"name":"5579a08d1dc3","address":"Sahaajankatu 28, 00880 Helsinki"},"geometry":{"type":"Point","coordinates":[25.0471,60.20174]}},{"type":"Feature","properties":{"name":"36b1d32b3c1d","address":"Videviku 29, 10131 Tallinn"},"geometry":{"type":"Point","coordinates":[24.73457,59.42405]}},{"type":"Feature","properties":{"name":"8205fbec4b3c","address":"3700 Vanowen St, Burbank, CA 91505"},"geometry":{"type":"Point","coordinates":[-118.351466,34.192218]}},{"type":"Feature","properties":{"name":"86be2faab2ec","address":"25 Enterprise Ave N, Secaucus, NJ 07094"},"geometry":{"type":"Point","coordinates":[-74.069875,40.784272]}},{"type":"Feature","properties":{"name":"7175bda05c63","address":"20 Rangwee 2412 Luxembourg"},"geometry":{"type":"Point","coordinates":[6.139879,49.588714]}},{"type":"Feature","properties":{"name":"dda9f3279e58","address":"6150 Lougheed Highway, Unit C, Burnaby, BC V5B 2Z9"},"geometry":{"type":"Point","coordinates":[-122.977468,49.263368]}},{"type":"Feature","properties":{"name":"332c3a0d916b","address":"3 Highbridge, Oxford Road, Uxbridge, UB8 1LX"},"geometry":{"type":"Point","coordinates":[-0.486388,51.547778]}},{"type":"Feature","properties":{"name":"842c3e7a0931","address":"Room E105, Pinewood Studio Wales Wentloog Environmental Centre, Wentloog Avenue, Cardiff, CF3 2GH"},"geometry":{"type":"Point","coordinates":[-3.101991,51.50683]}},{"type":"Feature","properties":{"name":"28f49d5e7cee","address":"Pottendorfer Str. 23-25, 1120 Wien"},"geometry":{"type":"Point","coordinates":[16.33017,48.169473]}},{"type":"Feature","properties":{"name":"c3b6a0d2b72b","address":"Na Radosti 420, Building 5 15521 Prague 5, Zlicín"},"geometry":{"type":"Point","coordinates":[14.277865,50.058303]}},{"type":"Feature","properties":{"name":"8e29bec82812","address":"Magyarországi Fióktelepe, Felsőkert utca. 6, 1151 Budapest"},"geometry":{"type":"Point","coordinates":[19.138663,47.581468]}},{"type":"Feature","properties":{"name":"24cb3389db8a","address":"Gaußstraße 17 10589 Berlin"},"geometry":{"type":"Point","coordinates":[13.308266,52.530252]}},{"type":"Feature","properties":{"name":"4153555ab211","address":"Münchener Str. 101 85737 Ismaning"},"geometry":{"type":"Point","coordinates":[11.661166,48.21162]}},{"type":"Feature","properties":{"name":"dd146e23b8a0","address":"Altenburger Str. 11 04275 Leipzig"},"geometry":{"type":"Point","coordinates":[12.383682,51.317978]}},{"type":"Feature","properties":{"name":"2e1465f829bd","address":"Heinrich-Pesch-Straße 7 50739 Köln"},"geometry":{"type":"Point","coordinates":[6.924948,50.976547]}},{"type":"Feature","properties":{"name":"bb262791d9db","address":"236 Greenpoint Ave, Brooklyn, NY 11222"},"geometry":{"type":"Point","coordinates":[-73.950377,40.730597]}},{"type":"Feature","properties":{"name":"0620f72171ee","address":"29, Jalan PJU 3/47, Sunway Damansara, 47810 Petaling Jaya, Selangor"},"geometry":{"type":"Point","coordinates":[101.597863,3.165234]}},{"type":"Feature","properties":{"name":"f98955350649","address":"Miguel Laurent 211, Col del Valle, 03100 Ciudad de México, CDMX"},"geometry":{"type":"Point","coordinates":[-99.171434,19.376382]}},{"type":"Feature","properties":{"name":"897219ee42d1","address":"Brunner Strasse 63/23, Halle 4N, 1230 Wien"},"geometry":{"type":"Point","coordinates":[16.300197,48.140595]}},{"type":"Feature","properties":{"name":"8ec9414071a7","address":"39 Rue Maurice Gunsbourg 94200 Ivry-sur-Seine"},"geometry":{"type":"Point","coordinates":[2.404031,48.81189]}},{"type":"Feature","properties":{"name":"bb6098cb8ef0","address":"Rue Auguste De Boeck 68B, 1140 Evere"},"geometry":{"type":"Point","coordinates":[4.400205,50.864274]}},{"type":"Feature","properties":{"name":"36d6ee9965a2","address":"3039 Roswell St, Los Angeles, CA 90065"},"geometry":{"type":"Point","coordinates":[-118.244199,34.115383]}},{"type":"Feature","properties":{"name":"932c9d4b3151","address":"11875 W Little York Rd Suite 1101, Houston, TX 77041"},"geometry":{"type":"Point","coordinates":[-95.586122,29.863762]}},{"type":"Feature","properties":{"name":"e0d68ca716a9","address":"3921 W Jefferson Blvd, Los Angeles, CA 90016"},"geometry":{"type":"Point","coordinates":[-118.338953,34.025741]}},{"type":"Feature","properties":{"name":"a555d016e089","address":"6700 S Centinela Ave, 2nd Floor, Culver City, CA 90230"},"geometry":{"type":"Point","coordinates":[-118.404674,33.984057]}},{"type":"Feature","properties":{"name":"531a25dd23a8","address":"1500 Whiting St SW, Wyoming, MI 49509"},"geometry":{"type":"Point","coordinates":[-85.703941,42.937011]}},{"type":"Feature","properties":{"name":"72512304c814","address":"1193 Grant St, Vancouver, BC V6A 2J7"},"geometry":{"type":"Point","coordinates":[-123.079153,49.271844]}},{"type":"Feature","properties":{"name":"9dbfcd1c03b4","address":"29 rue Cartier Bresson 93500 Pantin"},"geometry":{"type":"Point","coordinates":[2.397506,48.902999]}},{"type":"Feature","properties":{"name":"64a2766d1015","address":"Roma, Colima 300, Roma Nte., Cuauhtémoc, 06700 Ciudad de México, CDMX"},"geometry":{"type":"Point","coordinates":[-99.165736,19.418622]}},{"type":"Feature","properties":{"name":"d97e595a82cb","address":"H.J.E. Wenckebachweg 135, 1096 AM Amsterdam"},"geometry":{"type":"Point","coordinates":[4.932784,52.336862]}},{"type":"Feature","properties":{"name":"87be9b94010a","address":"Calle de Sta. Isabel, 13, 28108 Alcobendas, Madrid"},"geometry":{"type":"Point","coordinates":[-3.645347,40.535799]}},{"type":"Feature","properties":{"name":"70e22ccebda6","address":"Duivendrechtsekade 65, 1096 AH Amsterdam"},"geometry":{"type":"Point","coordinates":[4.932647,52.337959]}},{"type":"Feature","properties":{"name":"6c4dcb9dc8f8","address":"Leuvensesteenweg 248 Fb, 1800 Vilvoorde"},"geometry":{"type":"Point","coordinates":[4.448897,50.923393]}},{"type":"Feature","properties":{"name":"0e4ffb9336b9","address":"Wilhelm-Kabus-Straße 77, 10829 Berlin"},"geometry":{"type":"Point","coordinates":[13.364501,52.478033]}},{"type":"Feature","properties":{"name":"0cc265b081d1","address":"8/111 Old Pittwater Road, Brookvale NSW 2100"},"geometry":{"type":"Point","coordinates":[151.262519,-33.766]}},{"type":"Feature","properties":{"name":"a32031463fad","address":"Workit Spaces, B1/13-21 Mandible St, Alexandria NSW 2015"},"geometry":{"type":"Point","coordinates":[151.199895,-33.904043]}},{"type":"Feature","properties":{"name":"708814bd49d1","address":"1113 Vine St Houston, TX 77002"},"geometry":{"type":"Point","coordinates":[-95.357259,29.768595]}},{"type":"Feature","properties":{"name":"06089c033094","address":"Calle Severo Ochoa, 15, Nave 5, 28521 Rivas-Vaciamadrid, Madrid"},"geometry":{"type":"Point","coordinates":[-3.522128,40.336303]}},{"type":"Feature","properties":{"name":"fa564265e16b","address":"Torrent de Vallmajor, 94C, Nave 4 Badalona, 08915 Barcelona"},"geometry":{"type":"Point","coordinates":[2.255442,41.464778]}},{"type":"Feature","properties":{"name":"b35e26727869","address":"Marcus Thranes Gate 4C, 0473 Oslo"},"geometry":{"type":"Point","coordinates":[10.759063,59.933542]}},{"type":"Feature","properties":{"name":"6e9ebde7a5d0","address":"Västmannagatan 17, 113 25 Stockholm"},"geometry":{"type":"Point","coordinates":[18.051485,59.33766]}},{"type":"Feature","properties":{"name":"ebc07377100e","address":"Sankt Eriksgatan 128, 113 43 Stockholm"},"geometry":{"type":"Point","coordinates":[18.040587,59.347335]}},{"type":"Feature","properties":{"name":"8b7f5603360c","address":"Via Vincenzo Rabolini, 4, 20125 Milano MI"},"geometry":{"type":"Point","coordinates":[9.201968,45.505201]}},{"type":"Feature","properties":{"name":"f6ebe8a4bcac","address":"Viale Tor Marancia, 68, 00147 Roma RM"},"geometry":{"type":"Point","coordinates":[12.497595,41.853021]}},{"type":"Feature","properties":{"name":"521a3ff6e16f","address":"Duivendrechtsekade 72, 1096 AH Amsterdam"},"geometry":{"type":"Point","coordinates":[4.932151,52.337589]}},{"type":"Feature","properties":{"name":"5212215e0497","address":"14 Anning St, Hackney, London EC2A 3HB"},"geometry":{"type":"Point","coordinates":[-0.078065,51.524828]}},{"type":"Feature","properties":{"name":"62fe51d55f06","address":"4221 W Magnolia Blvd, Burbank, CA 91505"},"geometry":{"type":"Point","coordinates":[-118.352973,34.166262]}},{"type":"Feature","properties":{"name":"634910efc062","address":"1600 Oakbrook Dr #520, Norcross, GA 30093"},"geometry":{"type":"Point","coordinates":[-84.194462,33.913756]}},{"type":"Feature","properties":{"name":"6daf153b4348","address":"Van Aldegondebaan 7, 4615 AZ Bergen op Zoom"},"geometry":{"type":"Point","coordinates":[4.295045,51.486981]}},{"type":"Feature","properties":{"name":"00767c4a3faf","address":"5706-F General Washington Dr. Alexandria, VA 22312"},"geometry":{"type":"Point","coordinates":[-77.167221,38.797899]}},{"type":"Feature","properties":{"name":"920944ce657d","address":"Bruselas 2865, Asunción"},"geometry":{"type":"Point","coordinates":[-57.55688,-25.289613]}},{"type":"Feature","properties":{"name":"3a5c51c61573","address":"202 Azar Ct, Baltimore, MD 21227"},"geometry":{"type":"Point","coordinates":[-76.680477,39.258078]}},{"type":"Feature","properties":{"name":"588478b45c4e","address":"1336 Ninth St, Berkeley, CA 94710"},"geometry":{"type":"Point","coordinates":[-122.298005,37.878883]}},{"type":"Feature","properties":{"name":"3fb940599b9c","address":"Rua Senador Joaquim Ribeiro do Valle, 340, Galpão 3A - Vila Leopoldina, São Paulo - SP, 05311-010"},"geometry":{"type":"Point","coordinates":[-46.740218,-23.527171]}},{"type":"Feature","properties":{"name":"6c8f06403ecb","address":"11 bis rue Charles Fourier 75013 Paris"},"geometry":{"type":"Point","coordinates":[2.352063,48.824689]}},{"type":"Feature","properties":{"name":"a87c29684958","address":"Unknow"},"geometry":{"type":"Point","coordinates":[2.386371,48.859942]}},{"type":"Feature","properties":{"name":"f6df44933bae","address":"16 rue Bourrely 34000 Montpellier"},"geometry":{"type":"Point","coordinates":[3.869342,43.602913]}},{"type":"Feature","properties":{"name":"05c24cc3e218","address":"4700 W Jefferson Blvd, Ste 102, Los Angeles, CA 90016"},"geometry":{"type":"Point","coordinates":[-118.347472,34.025352]}},{"type":"Feature","properties":{"name":"e7fee932a372","address":"Via dell' Azoto, 4, 30175 Venezia VE"},"geometry":{"type":"Point","coordinates":[12.241948,45.464348]}},{"type":"Feature","properties":{"name":"2e07d94b6b8e","address":"Cra. 72a No. 24-72, Bogotá"},"geometry":{"type":"Point","coordinates":[-74.115965,4.663154]}},{"type":"Feature","properties":{"name":"483d2ee02887","address":"6158 Olson Memorial Hwy, Golden Valley, MN 55422"},"geometry":{"type":"Point","coordinates":[-93.358381,44.987905]}},{"type":"Feature","properties":{"name":"2c9a0ffdaa6e","address":"#62 báimǎ lù, Mapo Town, Shunyi District"},"geometry":{"type":"Point","coordinates":[116.657976,40.172038]}},{"type":"Feature","properties":{"name":"eb822849168b","address":"Iggelhorst 17, 44149 Dortmund"},"geometry":{"type":"Point","coordinates":[7.406475,51.507698]}},{"type":"Feature","properties":{"name":"984f863716d7","address":"Peterburi tee 34/4, 13520 Tallinn"},"geometry":{"type":"Point","coordinates":[24.807114,59.425535]}},{"type":"Feature","properties":{"name":"10e44bd88a7f","address":"7 Cumberland Rd, Kowloon Tong"},"geometry":{"type":"Point","coordinates":[114.177553,22.327979]}},{"type":"Feature","properties":{"name":"55e7e7f21503","address":"Xi San Qi, Hai Dian Qu,Beijing, China Beijing"},"geometry":{"type":"Point","coordinates":[116.36157,40.062102]}},{"type":"Feature","properties":{"name":"3c824a254196","address":"No. 5 Hua Tai Road, Hua Zhou Street, Hai Zhu District, Guangzhou"},"geometry":{"type":"Point","coordinates":[113.340867,23.070058]}},{"type":"Feature","properties":{"name":"44637fc15e08","address":"Unit 8, No.2328 Chunshen Road, Minhang District, Shanghai"},"geometry":{"type":"Point","coordinates":[121.410397,31.109432]}},{"type":"Feature","properties":{"name":"5dea7105fff1","address":"4 2nd St, Pasig, Metro Manila"},"geometry":{"type":"Point","coordinates":[121.059695,14.575126]}},{"type":"Feature","properties":{"name":"9e4fd9806f2f","address":"165 Sukhumvit 71 Road,  Prakanong Nua, Wattana,  Bangkok 10110"},"geometry":{"type":"Point","coordinates":[100.595335,13.717356]}},{"type":"Feature","properties":{"name":"0b5e72235bf4","address":"17, Jalan Tembaga SD 5/2, Bandar Sri Damansara, 52200 Kuala Lumpur, Selangor"},"geometry":{"type":"Point","coordinates":[101.6169,3.200502]}},{"type":"Feature","properties":{"name":"199997c7be8c","address":"6 rue de Villé 67220 Neuve-Eglise"},"geometry":{"type":"Point","coordinates":[7.312576,48.336328]}},{"type":"Feature","properties":{"name":"00c7da2364dc","address":"1419 E 40th St, Cleveland, OH 44103"},"geometry":{"type":"Point","coordinates":[-81.662792,41.515343]}},{"type":"Feature","properties":{"name":"aa85f939986c","address":"Av. Pdte. Eduardo Frei Montalva 6001, Conchalí"},"geometry":{"type":"Point","coordinates":[-70.697338,-33.369259]}},{"type":"Feature","properties":{"name":"3c7da39596d7","address":"Cra. 65 #81-58, Bogotá"},"geometry":{"type":"Point","coordinates":[-74.076554,4.683467]}},{"type":"Feature","properties":{"name":"c16380a4ad6e","address":"5723 Auckland Ave, North Hollywood, CA 91601"},"geometry":{"type":"Point","coordinates":[-118.36077,34.174725]}},{"type":"Feature","properties":{"name":"bdb3a5967bb8","address":"7-9 rue des Cottages 75018 Paris"},"geometry":{"type":"Point","coordinates":[2.337563,48.891004]}},{"type":"Feature","properties":{"name":"ef64f0906522","address":"3603 Seneca Ave #3, Los Angeles, CA 90039"},"geometry":{"type":"Point","coordinates":[-118.258013,34.121054]}},{"type":"Feature","properties":{"name":"f17b18822117","address":"Exportgatan 38D, 422 46 Hisings Backa"},"geometry":{"type":"Point","coordinates":[11.99339,57.74555]}},{"type":"Feature","properties":{"name":"72eb880975d3","address":"Harpsundsvägen 199-201, 124 59 Bandhagen"},"geometry":{"type":"Point","coordinates":[18.05361,59.25973]}},{"type":"Feature","properties":{"name":"9bb75c7096e3","address":"Moråsvägen 5, 961 67 Boden"},"geometry":{"type":"Point","coordinates":[21.7163,65.83795]}},{"type":"Feature","properties":{"name":"38913364b74c","address":"Lützowstraße 33, 10785 Berlin"},"geometry":{"type":"Point","coordinates":[13.360058,52.504357]}},{"type":"Feature","properties":{"name":"7c85e23b6813","address":"Rüdigergasse 16, 1050 Wien"},"geometry":{"type":"Point","coordinates":[16.356581,48.194551]}},{"type":"Feature","properties":{"name":"0c749b77659e","address":"Vining Street, 1900 Belmont Ave, Victoria, BC V8R 3Z4"},"geometry":{"type":"Point","coordinates":[-123.339273,48.429977]}},{"type":"Feature","properties":{"name":"5b5bbc68fc33","address":"189 Rue d'Aubervilliers CAP 18 - Unit A53/55 75018 Paris"},"geometry":{"type":"Point","coordinates":[2.367685,48.895513]}},{"type":"Feature","properties":{"name":"34ae95680967","address":"200-202 Hercules Road, Waterloo, London SE1 7LD"},"geometry":{"type":"Point","coordinates":[-0.114947,51.497515]}},{"type":"Feature","properties":{"name":"518152a4695e","address":"3F, Space Studios, Vaughan St, Manchester M12 5FQ"},"geometry":{"type":"Point","coordinates":[-2.197976,53.470294]}},{"type":"Feature","properties":{"name":"7d5b06ac3af5","address":"Cape Island Studios, 3 Sanlam Business Park, Koeberg Road, Milnerton, Cape Town, 7435"},"geometry":{"type":"Point","coordinates":[18.510324,-33.866662]}},{"type":"Feature","properties":{"name":"f6e9e205b3eb","address":"231 W 29th St Suite 210, New York, NY 10001"},"geometry":{"type":"Point","coordinates":[-73.994171,40.748667]}},{"type":"Feature","properties":{"name":"b45015d6e539","address":"Rua Heliópolis, 75 - Vila Hamburguesa, São Paulo - SP, 05318-010"},"geometry":{"type":"Point","coordinates":[-46.729167,-23.533988]}},{"type":"Feature","properties":{"name":"a1fa3e413d49","address":"6 boulevard de la Libération 93200 Saint-Denis"},"geometry":{"type":"Point","coordinates":[2.341064,48.928512]}},{"type":"Feature","properties":{"name":"f118a13ebf25","address":"Slamastrasse 43, 1230 Wien"},"geometry":{"type":"Point","coordinates":[16.338198,48.137301]}},{"type":"Feature","properties":{"name":"710cf514b369","address":"2122 Aaron St, Los Angeles, CA 90026"},"geometry":{"type":"Point","coordinates":[-118.259184,34.08651]}},{"type":"Feature","properties":{"name":"6c4b479b072d","address":"Calle Sta. Leonor, 61, 1º Piso - Oficina 2, 28037 Madrid"},"geometry":{"type":"Point","coordinates":[-3.628329,40.433836]}},{"type":"Feature","properties":{"name":"3b4e9a2d16c1","address":"16 avenue Claude Chappe 33600 Pessac"},"geometry":{"type":"Point","coordinates":[-0.666364,44.779536]}},{"type":"Feature","properties":{"name":"f92978ffa2f2","address":"Woluwelaan 141C, 1831 Machelen"},"geometry":{"type":"Point","coordinates":[4.44592,50.89177]}},{"type":"Feature","properties":{"name":"147a50870fde","address":"32 rue Raspail 93120 La Courneuve"},"geometry":{"type":"Point","coordinates":[2.396877,48.922678]}},{"type":"Feature","properties":{"name":"37fd166c87c4","address":"6 place de Nancy 1544 Luxembourg"},"geometry":{"type":"Point","coordinates":[6.118202,49.603442]}},{"type":"Feature","properties":{"name":"d9e2c029b8b5","address":"33 rue du Maréchal Lefebvre 67100 Strasbourg"},"geometry":{"type":"Point","coordinates":[7.740181,48.561282]}},{"type":"Feature","properties":{"name":"72e44dacd8c4","address":"Rue Simon-Durand 11, 1227 Genève"},"geometry":{"type":"Point","coordinates":[6.138921,46.190231]}},{"type":"Feature","properties":{"name":"e2b11bc3e059","address":"9 impasse Léonce Couture 31200 Toulouse"},"geometry":{"type":"Point","coordinates":[1.474391,43.637721]}},{"type":"Feature","properties":{"name":"1b9956bf6686","address":"Georg-Wilhelm-Straße 2 10711 Berlin"},"geometry":{"type":"Point","coordinates":[13.29054,52.498089]}},{"type":"Feature","properties":{"name":"7078c632f8f0","address":"Aschauer Str. 8 81549 München"},"geometry":{"type":"Point","coordinates":[11.599637,48.106989]}},{"type":"Feature","properties":{"name":"414ffd459d1b","address":"Esentepe, Gazeteciler Sit. Dergiler Sk. No:3, 34360 Şişli/İstanbul"},"geometry":{"type":"Point","coordinates":[29.00796,41.07001]}},{"type":"Feature","properties":{"name":"890e10bef01f","address":"Warehouse B34, International Media Production Zone, Dubai"},"geometry":{"type":"Point","coordinates":[55.18777,25.02992]}},{"type":"Feature","properties":{"name":"5a130bb1407d","address":"TwoFour54, Studios Musaffah, Abu Dhabi"},"geometry":{"type":"Point","coordinates":[54.524434,24.321743]}},{"type":"Feature","properties":{"name":"8010dcd878a4","address":"M-212, Himmat Singh Marg, Nai Basti, Lado Sarai, New Delhi, Delhi 110030"},"geometry":{"type":"Point","coordinates":[77.196343,28.524582]}},{"type":"Feature","properties":{"name":"9e1db9ba85d8","address":"B-G-07 Block C Pusat Dagangan NZX, Jalan PJU 1A/41B, Ara Damansara, 47301 Petaling Jaya, Selangor"},"geometry":{"type":"Point","coordinates":[101.590275,3.114694]}},{"type":"Feature","properties":{"name":"adb014324f64","address":"ZI Jarry, Immeuble Orlando, Baie-Mahault 97122, Guadeloupe"},"geometry":{"type":"Point","coordinates":[-61.568992,6.240019]}},{"type":"Feature","properties":{"name":"d79fc214a6bb","address":"29 bis Rue Henri Barbusse 75005 Paris"},"geometry":{"type":"Point","coordinates":[2.338833,48.841164]}},{"type":"Feature","properties":{"name":"e94d92671329","address":"4822 E Cesar Chavez St, Austin, TX 78702"},"geometry":{"type":"Point","coordinates":[-97.702027,30.252194]}},{"type":"Feature","properties":{"name":"850a168a0bcf","address":"Av. de los Montes de Oca, 20, Nave 3, 28703 San Sebastián de los Reyes, Madrid"},"geometry":{"type":"Point","coordinates":[-3.612481,40.551102]}},{"type":"Feature","properties":{"name":"16ade880a41c","address":"5009 Exposition Blvd, Los Angeles, CA 90016"},"geometry":{"type":"Point","coordinates":[-118.352488,34.025187]}},{"type":"Feature","properties":{"name":"dbe0465b5482","address":"3100 N Damon Way, Burbank, CA 91505"},"geometry":{"type":"Point","coordinates":[-118.360829,34.205084]}},{"type":"Feature","properties":{"name":"3a0b0b9af1e4","address":"6A St, Al Quoz, Dubai"},"geometry":{"type":"Point","coordinates":[55.224254,25.14028]}},{"type":"Feature","properties":{"name":"0767d1f3b9aa","address":"Dubai Studio City, Al Quoz 3, Dubai"},"geometry":{"type":"Point","coordinates":[55.238652,25.166093]}},{"type":"Feature","properties":{"name":"88ada5211710","address":"254 rue F. Pressensé Bât 5 69100 Villeurbanne"},"geometry":{"type":"Point","coordinates":[4.891698,45.769279]}},{"type":"Feature","properties":{"name":"b00663cc9ac5","address":"47 bis Rue Thiers, 92100 Boulogne-Billancourt"},"geometry":{"type":"Point","coordinates":[2.248656,48.836781]}},{"type":"Feature","properties":{"name":"b01acce5b1c7","address":"Calle Nva 1757, Huechuraba, Santiago"},"geometry":{"type":"Point","coordinates":[-70.679941,-33.361892]}},{"type":"Feature","properties":{"name":"d91bf134c360","address":"325 38th St, Brooklyn, NY 11232"},"geometry":{"type":"Point","coordinates":[-74.006706,40.654239]}},{"type":"Feature","properties":{"name":"0045daaef297","address":"Gjerdrumsvei 6, N-0484 Oslo"},"geometry":{"type":"Point","coordinates":[10.766061,59.953019]}},{"type":"Feature","properties":{"name":"d494c3ec5ec6","address":"Rådmandsgade 37-39, 2200 København"},"geometry":{"type":"Point","coordinates":[12.550499,55.700114]}},{"type":"Feature","properties":{"name":"0313bb1a6d7c","address":"Gamlestadsvägen 4 - B2, 415 02, Göteborg"},"geometry":{"type":"Point","coordinates":[12.006327,57.726143]}},{"type":"Feature","properties":{"name":"200f0b005931","address":"Laippatie 14, 00880 Helsinki"},"geometry":{"type":"Point","coordinates":[25.047167,60.210434]}},{"type":"Feature","properties":{"name":"a5e9464d52a2","address":"Dieselstraße 3 85774 Unterföhring"},"geometry":{"type":"Point","coordinates":[11.652588,48.190277]}},{"type":"Feature","properties":{"name":"41178904b796","address":"5900 Blackwelder St, Culver City, CA 90232"},"geometry":{"type":"Point","coordinates":[-118.374794,34.030356]}},{"type":"Feature","properties":{"name":"4a4467587f4f","address":"2602 W 16th St 2nd floor, Chicago, IL 60608"},"geometry":{"type":"Point","coordinates":[-87.690977,41.859694]}},{"type":"Feature","properties":{"name":"52943311d8f6","address":"201 Evans Rd Suite 303, Harahan, LA 70123"},"geometry":{"type":"Point","coordinates":[-90.181861,29.944503]}},{"type":"Feature","properties":{"name":"3260134a7e4b","address":"812 W Layton Ave, Suite A, Salt Lake City, UT 84104"},"geometry":{"type":"Point","coordinates":[-111.914311,40.73026]}},{"type":"Feature","properties":{"name":"9ea79a65f618","address":"554 N Ave NW Suite A, Atlanta, GA 30318"},"geometry":{"type":"Point","coordinates":[-84.405459,33.769862]}},{"type":"Feature","properties":{"name":"260f4483b6ca","address":"815 Bellamah Ave NW, Albuquerque, NM 87102"},"geometry":{"type":"Point","coordinates":[-106.655433,35.10089]}},{"type":"Feature","properties":{"name":"239349944ff5","address":"1225 Keith Rd E #2, North Vancouver, BC V7J 1J3"},"geometry":{"type":"Point","coordinates":[-123.039614,49.312877]}},{"type":"Feature","properties":{"name":"b5dafb7118ab","address":"16 Overlea Blvd, Toronto, ON M4H 1A4"},"geometry":{"type":"Point","coordinates":[-79.351468,43.704098]}},{"type":"Feature","properties":{"name":"e5c07a481b7c","address":"Boulevard Général Wahis 16F, 1030 Bruxelles"},"geometry":{"type":"Point","coordinates":[4.399744,50.863841]}},{"type":"Feature","properties":{"name":"d43e679e7fa6","address":"Mindaugo st. 42A, Vilnius 01311"},"geometry":{"type":"Point","coordinates":[25.277136,54.671954]}},{"type":"Feature","properties":{"name":"0ab53984d527","address":"Henry Fordin katu 6F, 00150 Helsinki"},"geometry":{"type":"Point","coordinates":[24.925585,60.15247]}},{"type":"Feature","properties":{"name":"e0f9cf2b6c86","address":"2828 SE 14th Ave, Portland, OR 97202"},"geometry":{"type":"Point","coordinates":[-122.651391,45.502329]}},{"type":"Feature","properties":{"name":"db8a9a9136a2","address":"101 Nickerson St, Seattle, WA 98109"},"geometry":{"type":"Point","coordinates":[-122.355411,47.648332]}},{"type":"Feature","properties":{"name":"83f6e023daac","address":"Sandakerveien 24C, Bygg C3, 0473 Oslo"},"geometry":{"type":"Point","coordinates":[10.759066,59.934601]}},{"type":"Feature","properties":{"name":"43f7646eb52f","address":"Jöfursbás 4, 112 Reykjavík"},"geometry":{"type":"Point","coordinates":[-21.810742,64.152777]}},{"type":"Feature","properties":{"name":"1fc00ccc3b38","address":"2 Place Francis Chirat 13002 Marseille"},"geometry":{"type":"Point","coordinates":[5.367509,43.301446]}},{"type":"Feature","properties":{"name":455920988285,"address":"3975 Landmark St #700, Culver City, CA 90232"},"geometry":{"type":"Point","coordinates":[-118.386023,34.02631]}},{"type":"Feature","properties":{"name":"4dd3b51e8bed","address":"2239 Hartranft St, Philadelphia, PA 19145"},"geometry":{"type":"Point","coordinates":[-75.187233,39.911183]}},{"type":"Feature","properties":{"name":"3b9a62063c6a","address":"Fabriekstraat 81, 1800 Vilvoorde"},"geometry":{"type":"Point","coordinates":[4.446491,50.948609]}},{"type":"Feature","properties":{"name":"1a5778e64a63","address":"Nieuwe Hemweg 5B, 1013 BG Amsterdam"},"geometry":{"type":"Point","coordinates":[4.867009,52.394841]}},{"type":"Feature","properties":{"name":"111cd782b58e","address":"Backa Bergögata 12A, 422 46 Hisings Backa"},"geometry":{"type":"Point","coordinates":[11.99934,57.748]}},{"type":"Feature","properties":{"name":"08e9a5b2a7c6","address":"Voltavägen 9, 168 69 Bromma"},"geometry":{"type":"Point","coordinates":[18.11678,59.34384]}},{"type":"Feature","properties":{"name":"64b5be7cacb1","address":"173 rue du Faubourg Poissonnière 75009 Paris"},"geometry":{"type":"Point","coordinates":[2.349635,48.882127]}},{"type":"Feature","properties":{"name":"18b5cc7f4034","address":"6212 Banner Ave, Los Angeles, CA 90038"},"geometry":{"type":"Point","coordinates":[-118.324996,34.091676]}},{"type":"Feature","properties":{"name":"3936afa39301","address":"42 rue du Général Lizé 49100 Angers"},"geometry":{"type":"Point","coordinates":[-0.568347,47.489444]}},{"type":"Feature","properties":{"name":"0553364516d8","address":"Bergholzstraße 1-4 12099 Berlin"},"geometry":{"type":"Point","coordinates":[13.421358,52.457077]}},{"type":"Feature","properties":{"name":"e02b7debefb4","address":"Lehrer-Götz-Weg 17 81825 München"},"geometry":{"type":"Point","coordinates":[11.66855,48.124449]}},{"type":"Feature","properties":{"name":"7744dd903d4f","address":"Industriestraße 95 04229 Leipzig"},"geometry":{"type":"Point","coordinates":[12.329598,51.328136]}},{"type":"Feature","properties":{"name":"b31bd404832c","address":"Stolberger Str. 366/Haus C 50933 Köln"},"geometry":{"type":"Point","coordinates":[6.886943,50.942863]}},{"type":"Feature","properties":{"name":"e4b3e2aa1ffc","address":"Winsbergring 34 22525 Hamburg"},"geometry":{"type":"Point","coordinates":[9.915685,53.57644]}},{"type":"Feature","properties":{"name":"7f4a1765c956","address":"Erich-Kästner-Straße 1 99094 Erfurt"},"geometry":{"type":"Point","coordinates":[10.997936,50.961888]}},{"type":"Feature","properties":{"name":"1c72b2f98050","address":"Streichhoffeld 3 73457 Essingen"},"geometry":{"type":"Point","coordinates":[10.021803,48.820661]}},{"type":"Feature","properties":{"name":"7466f31af58e","address":"Trelleborggade 9, 2150 København"},"geometry":{"type":"Point","coordinates":[12.59319,55.706944]}},{"type":"Feature","properties":{"name":"a45f1319cee1","address":"Filmbyen 23, 8000 Aarhus"},"geometry":{"type":"Point","coordinates":[10.213889,56.150703]}},{"type":"Feature","properties":{"name":"c46ad4e68423","address":"Kokskovvej 28, 5750 Ringe"},"geometry":{"type":"Point","coordinates":[10.449336,55.217731]}},{"type":"Feature","properties":{"name":"45eb2174a24b","address":"54 rue Sedaine 75011 Paris"},"geometry":{"type":"Point","coordinates":[2.376179,48.857633]}},{"type":"Feature","properties":{"name":"0da8adbd1cb6","address":"Westerbachstraße 164, 65936 Frankfurt am Main"},"geometry":{"type":"Point","coordinates":[8.584168,50.124468]}},{"type":"Feature","properties":{"name":"289e9cf074a7","address":"11222 Washington Blvd, Culver City, CA 90230"},"geometry":{"type":"Point","coordinates":[-118.413235,34.00639]}},{"type":"Feature","properties":{"name":"a5b597061dd0","address":"Via Carlo Porta, 3, 20093 Cologno Monzese MI"},"geometry":{"type":"Point","coordinates":[9.291217,45.540702]}},{"type":"Feature","properties":{"name":"a6bd9d05c7d9","address":"Via Giulio Verne, 1, 20137 Milano MI"},"geometry":{"type":"Point","coordinates":[9.221597,45.446739]}},{"type":"Feature","properties":{"name":"a8bae65b9873","address":"3328 Waypoint Dr, Carrollton, TX 75006"},"geometry":{"type":"Point","coordinates":[-96.840017,32.985665]}},{"type":"Feature","properties":{"name":"bfdb9518ac95","address":"16585 N 92nd St Unit 104, Scottsdale, AZ 85260"},"geometry":{"type":"Point","coordinates":[-111.881889,33.636251]}},{"type":"Feature","properties":{"name":"52aa646535f5","address":"2931 S Tejon St B, Englewood, CO 80110"},"geometry":{"type":"Point","coordinates":[-105.011309,39.663508]}},{"type":"Feature","properties":{"name":"261ae7ea6339","address":"1901 E 51st St Unit 110, Austin, TX 78723"},"geometry":{"type":"Point","coordinates":[-97.695653,30.300298]}},{"type":"Feature","properties":{"name":"0df9045afe07","address":"Vilardebó 1272, 11800 Montevideo"},"geometry":{"type":"Point","coordinates":[-56.191262,-34.877283]}},{"type":"Feature","properties":{"name":"548074c4fcb4","address":"El Rosal 5187, Huechuraba"},"geometry":{"type":"Point","coordinates":[-70.648739,-33.370106]}},{"type":"Feature","properties":{"name":"78a66e4daaab","address":"620 E 11th St, Houston, TX 77008"},"geometry":{"type":"Point","coordinates":[-95.391145,29.790621]}},{"type":"Feature","properties":{"name":"de341974624c","address":"Carrer de Llull, 48, 08005 Barcelona"},"geometry":{"type":"Point","coordinates":[2.192085,41.393406]}},{"type":"Feature","properties":{"name":"d245844e5456","address":"La Cité du Cinéma, 20 rue Ampère 93210 Saint-Denis"},"geometry":{"type":"Point","coordinates":[2.336543,48.922772]}},{"type":"Feature","properties":{"name":"fd4eb7ad0077","address":"7 Kerr St, Preston VIC 3072"},"geometry":{"type":"Point","coordinates":[145.023708,-37.753728]}},{"type":"Feature","properties":{"name":"c4c2d74e443c","address":"11058 Randall St, Sun Valley, CA 91352"},"geometry":{"type":"Point","coordinates":[-118.371849,34.236713]}},{"type":"Feature","properties":{"name":"6be7c0e5c445","address":"20 Torlake Crescent, Etobicoke, ON M8Z 1B3"},"geometry":{"type":"Point","coordinates":[-79.52499,43.610894]}},{"type":"Feature","properties":{"name":"1063ab791d41","address":"1010 Polytek St Unit 10, Gloucester, ON K1J 9H9"},"geometry":{"type":"Point","coordinates":[-75.584087,45.456169]}},{"type":"Feature","properties":{"name":"8f5dab63056c","address":"Mithatpaşa, Kumsu Sk. No:11, 34075 Eyüpsultan/İstanbul"},"geometry":{"type":"Point","coordinates":[28.905557,41.159487]}},{"type":"Feature","properties":{"name":"718db43edbab","address":"Rua M Angeles Gandara 12, Nave C19, 15890 Santiago de Compostela, A Coruña"},"geometry":{"type":"Point","coordinates":[-8.521437,42.911032]}},{"type":"Feature","properties":{"name":"6f046ae756cb","address":"C. Curtidurías, 12b, 41002 Sevilla, EspagneC. Curtidurías, 12b, 41002 Sevilla"},"geometry":{"type":"Point","coordinates":[-5.99992,37.398351]}},{"type":"Feature","properties":{"name":"cc4a8e5a681c","address":"Plaza Avilés 1, 46988 Paterna"},"geometry":{"type":"Point","coordinates":[-0.46234,39.513588]}},{"type":"Feature","properties":{"name":"7e94d8df24c5","address":"Av. Montes de Oca 19, Nave 23, 28703 San Sebastián de los Reyes"},"geometry":{"type":"Point","coordinates":[-3.61118,40.552357]}},{"type":"Feature","properties":{"name":"5aacead11001","address":"Calle Eduard Maristany 396, 08918 Badalona"},"geometry":{"type":"Point","coordinates":[2.235243,41.430511]}},{"type":"Feature","properties":{"name":"825ea67f46a9","address":"Pôle Pixel 36 rue Emile Decorps 69100 Villeurbanne"},"geometry":{"type":"Point","coordinates":[4.898835,45.756379]}},{"type":"Feature","properties":{"name":"9e08b9e17dbb","address":"The Metropolitan Centre, Bristol Road, Greenford UB6 8GD"},"geometry":{"type":"Point","coordinates":[-0.359651,51.540075]}},{"type":"Feature","properties":{"name":"c1fa11545fbe","address":"2 quai de Brazza 33100 Bordeaux"},"geometry":{"type":"Point","coordinates":[-0.556792,44.85216]}},{"type":"Feature","properties":{"name":"e571db07dfe0","address":"107 avenue Henri Fréville 35200 Rennes"},"geometry":{"type":"Point","coordinates":[-1.673675,48.086118]}},{"type":"Feature","properties":{"name":"fb7018ad1acc","address":"48 rue Claude Balbastre 34070 Montpellier"},"geometry":{"type":"Point","coordinates":[3.861975,43.573077]}},{"type":"Feature","properties":{"name":"0e97b7f43e53","address":"6 boulevard Gueidon 13013 Marseille"},"geometry":{"type":"Point","coordinates":[5.420894,43.322322]}},{"type":"Feature","properties":{"name":"4bcfb51b92fa","address":"150 Varick St, New York, NY 10013"},"geometry":{"type":"Point","coordinates":[-74.005445,40.726278]}},{"type":"Feature","properties":{"name":"9df3fec32e1b","address":"1554 W Carroll Ave, Chicago, IL 60607"},"geometry":{"type":"Point","coordinates":[-87.66641,41.887535]}},{"type":"Feature","properties":{"name":"7ddf403a04a0","address":"8000 Jetstar Dr, Irving, TX 75063"},"geometry":{"type":"Point","coordinates":[-97.002157,32.915727]}},{"type":"Feature","properties":{"name":"a3a29917917e","address":"837 Distributors Row, New Orleans, LA 70123"},"geometry":{"type":"Point","coordinates":[-90.188473,29.955198]}},{"type":"Feature","properties":{"name":"eac7ffb08a51","address":"1250 Menlo Dr NW, Atlanta, GA 30318"},"geometry":{"type":"Point","coordinates":[-84.42237,33.787211]}},{"type":"Feature","properties":{"name":"ebbf7ca5b390","address":"3521 Bryn Mawr Dr NE, Albuquerque, NM 87107"},"geometry":{"type":"Point","coordinates":[-106.610001,35.121952]}},{"type":"Feature","properties":{"name":"40a92cf89d8a","address":"5560 Trapp Ave, Burnaby, BC V3N 5G4"},"geometry":{"type":"Point","coordinates":[-122.972934,49.189664]}},{"type":"Feature","properties":{"name":"5001d7a66a06","address":"900A Don Mills Rd, North York, Toronto, ON M3C 1V6"},"geometry":{"type":"Point","coordinates":[-79.343516,43.726882]}},{"type":"Feature","properties":{"name":"e64b40ca201e","address":"2880 107 Ave SE, Unit 118, Calgary, AB T2Z 3R7"},"geometry":{"type":"Point","coordinates":[-113.994522,50.957645]}},{"type":"Feature","properties":{"name":"525ef438bd31","address":"192 Joseph Zatzman Drive, Suite 5, Dartmouth, NS B3B 1N4"},"geometry":{"type":"Point","coordinates":[-63.602347,44.714215]}},{"type":"Feature","properties":{"name":"32ddb3521a01","address":"79 Reedbuck Cres, Randjespark, Midrand, 1685"},"geometry":{"type":"Point","coordinates":[28.140895,-25.945118]}},{"type":"Feature","properties":{"name":"15b2720b559c","address":"Racecourse Rd, Milnerton Business Park, Phase 6, Milnerton, Cape Town, 7441"},"geometry":{"type":"Point","coordinates":[18.511071,-33.866508]}},{"type":"Feature","properties":{"name":"d2cb6ea76785","address":"1/706 Mowbray Rd W, Lane Cove North NSW 2066"},"geometry":{"type":"Point","coordinates":[151.148423,-33.803852]}},{"type":"Feature","properties":{"name":"636f46484fb7","address":"4/344 Lorimer St, Port Melbourne VIC 3207"},"geometry":{"type":"Point","coordinates":[144.909938,-37.823377]}},{"type":"Feature","properties":{"name":"e9e730355401","address":"Warner Roadshow Studios, Pacific Highway, Oxenford QLD 4210"},"geometry":{"type":"Point","coordinates":[153.312907,-27.910494]}},{"type":"Feature","properties":{"name":"efc20183fa01","address":"318 Richmond Road, Grey Lynn, Auckland 1021"},"geometry":{"type":"Point","coordinates":[174.731111,-36.855229]}},{"type":"Feature","properties":{"name":"747ce6730d6d","address":"Boulevard Auguste Reyers 52 1044 Schaerbeek"},"geometry":{"type":"Point","coordinates":[4.402849,50.851631]}},{"type":"Feature","properties":{"name":"11ce1dd61d47","address":"Rue Jules Destrée 52 6001 Charleroi"},"geometry":{"type":"Point","coordinates":[4.452299,50.396699]}},{"type":"Feature","properties":{"name":"e4376f879dff","address":"Capital Business Park, Unit J2, Cardiff CF3 2PX"},"geometry":{"type":"Point","coordinates":[-3.114168,51.501939]}},{"type":"Feature","properties":{"name":"9030d754802e","address":"Door 27, Warner Bros. Studios, Aerodrome Way, Watford WD25 7GN"},"geometry":{"type":"Point","coordinates":[-0.421483,51.692993]}},{"type":"Feature","properties":{"name":"7e30339410ef","address":"Loughside Industrial Park Unit 9, Belfast, BT3 9JA"},"geometry":{"type":"Point","coordinates":[-5.912494,54.626395]}},{"type":"Feature","properties":{"name":"eb598440f5df","address":"1B, Space Studios, Vaughan St, Manchester M12 5FQ"},"geometry":{"type":"Point","coordinates":[-2.197856,53.470341]}},{"type":"Feature","properties":{"name":"539a427722c0","address":"The Lodge Ardmore Studios, Herbert Rd, Killarney, Bray, Wicklow"},"geometry":{"type":"Point","coordinates":[-6.125276,53.19659]}},{"type":"Feature","properties":{"name":"2ea4d93e4523","address":"45 avenue Victor Hugo Bâtiment 217 93300 Aubervilliers"},"geometry":{"type":"Point","coordinates":[2.368033,48.904529]}},{"type":"Feature","properties":{"name":"6eeefd4179c2","address":"6735 Selma Ave, Los Angeles, CA 90028"},"geometry":{"type":"Point","coordinates":[-118.337214,34.100245]}},{"type":"Feature","properties":{"name":"cbee72f41425","address":"500 Sandy Creek Rd, Building 2004, Suite 103, Fayetteville, GA 30214"},"geometry":{"type":"Point","coordinates":[-84.514812,33.47409]}},{"type":"Feature","properties":{"name":"72dcf2a317c7","address":"6101 Variel Ave, Woodland Hills, CA 91367"},"geometry":{"type":"Point","coordinates":[-118.593152,34.181557]}},{"type":"Feature","properties":{"name":"faadecb5920d","address":"Carol St, Islington, London NW1 0HT"},"geometry":{"type":"Point","coordinates":[-0.12059,51.54035]}},{"type":"Feature","properties":{"name":"42f5ccf8bb1a","address":"3727 W Magnolia Blvd, Burbank, CA 91505"},"geometry":{"type":"Point","coordinates":[-118.347983,34.168004]}},{"type":"Feature","properties":{"name":"414629faa017","address":"8 rue de l'Hôpital Saint-Louis 75010 Paris"},"geometry":{"type":"Point","coordinates":[2.365513,48.875304]}},{"type":"Feature","properties":{"name":"39c017abd88a","address":"26 Clarke St, Norwood SA 5067"},"geometry":{"type":"Point","coordinates":[138.624878,-34.927122]}},{"type":"Feature","properties":{"name":"a02de10c8aa1","address":"3 boulevard Georges Méliès 94350 Villiers-sur-Marne"},"geometry":{"type":"Point","coordinates":[2.537377,48.836604]}},{"type":"Feature","properties":{"name":"21250a5a7e86","address":"2 Boulevard de la Libération, Bâtiment A2, 93200 Saint-Denis"},"geometry":{"type":"Point","coordinates":[2.338732,48.92747]}},{"type":"Feature","properties":{"name":"2935284ad2b0","address":"112-14 Samseong-dong, Gangnam-gu, Seoul"},"geometry":{"type":"Point","coordinates":[127.045101,37.509986]}},{"type":"Feature","properties":{"name":"bda06e428697","address":"17 rue de la Reine Blanche 75013 Paris"},"geometry":{"type":"Point","coordinates":[2.353991,48.836669]}},{"type":"Feature","properties":{"name":"37f57c3c895f","address":"2762 S La Cienega Blvd, Los Angeles, CA 90034"},"geometry":{"type":"Point","coordinates":[-118.374843,34.033026]}},{"type":"Feature","properties":{"name":"5f2cb2e4a929","address":"18, Porur Sundaram St, Darmapuram, T. Nagar, Chennai, Tamil Nadu 600017"},"geometry":{"type":"Point","coordinates":[80.235471,13.0527]}},{"type":"Feature","properties":{"name":"49f6e1831f1e","address":"Polstjärnegatan 14, 417 56 Göteborg"},"geometry":{"type":"Point","coordinates":[11.934004,57.708076]}},{"type":"Feature","properties":{"name":"8a095299785a","address":"554 W Main St Building B Suite 200, Buford, GA30518"},"geometry":{"type":"Point","coordinates":[-84.176355,34.118557]}},{"type":"Feature","properties":{"name":"d2a5b9811246","address":"Rayimbek Ave 486Б, Almaty"},"geometry":{"type":"Point","coordinates":[76.850265,43.250801]}},{"type":"Feature","properties":{"name":"1b85c63cc232","address":"Poleczki 29, 02-822 Warszawa"},"geometry":{"type":"Point","coordinates":[21.002823,52.1592]}},{"type":"Feature","properties":{"name":"cdaee893c163","address":"29 Sale Street, Auckland CBD, Auckland 1010"},"geometry":{"type":"Point","coordinates":[174.755148,-36.849324]}},{"type":"Feature","properties":{"name":"72efdc456e0f","address":"5/7 McCormack Place, Ngauranga, Wellington 6035"},"geometry":{"type":"Point","coordinates":[174.81219,-41.246265]}},{"type":"Feature","properties":{"name":"c13b3e21afe9","address":"Gorriti 5842, C1414 BKJ, Buenos Aires"},"geometry":{"type":"Point","coordinates":[-58.439807,-34.58305]}},{"type":"Feature","properties":{"name":"46c558e1ec3c","address":"39 rue Maurice Gunsbourg 94205 Ivry-sur-Seine"},"geometry":{"type":"Point","coordinates":[2.404106,48.811929]}},{"type":"Feature","properties":{"name":"55adf896499e","address":"Ecole Supérieure des Arts Visuels 40002 Marrakech"},"geometry":{"type":"Point","coordinates":[-8.004208,31.666493]}},{"type":"Feature","properties":{"name":"cdf30604e88e","address":"2230 Columbia St, San Diego, CA 92101"},"geometry":{"type":"Point","coordinates":[-117.169416,32.72805]}},{"type":"Feature","properties":{"name":"fbb7e2561e9c","address":"5-5 Kojimac, hi, Chiyoda-ku, 102-0083, Tokyo"},"geometry":{"type":"Point","coordinates":[139.733622,35.684408]}},{"type":"Feature","properties":{"name":"5844f22a575a","address":"5-3-1 Toyosaki, Kita-ku, Osaka 531-0072"},"geometry":{"type":"Point","coordinates":[135.499674,34.712883]}},{"type":"Feature","properties":{"name":"15a62355f254","address":"Rotherstraße 5, 10245 Berlin"},"geometry":{"type":"Point","coordinates":[13.45304,52.503415]}},{"type":"Feature","properties":{"name":"83ecb708d758","address":"Carrer de Joan d'Àustria, 116, 08018 Barcelona"},"geometry":{"type":"Point","coordinates":[2.188505,41.395697]}},{"type":"Feature","properties":{"name":"fea345d23f45","address":"130 rue de Belleville 75020 Paris"},"geometry":{"type":"Point","coordinates":[2.38882,48.874814]}},{"type":"Feature","properties":{"name":"6c662d53f00c","address":"Unit 10, Roslin Square, Roslin Rd, London W3 8DH"},"geometry":{"type":"Point","coordinates":[-0.27396,51.501035]}},{"type":"Feature","properties":{"name":"9faa9c930aa8","address":"3645 Grandview Hwy, Vancouver, BC V5M 2G7"},"geometry":{"type":"Point","coordinates":[-123.025238,49.258685]}},{"type":"Feature","properties":{"name":"8f2051081aa4","address":"1 Atlantic Ave, Suite110, Toronto, ON M6K 3E7"},"geometry":{"type":"Point","coordinates":[-79.419321,43.636538]}},{"type":"Feature","properties":{"name":"95544f89462b","address":"575 Fraser St, North Bay, ON P1B 3X3"},"geometry":{"type":"Point","coordinates":[-79.462595,46.313309]}},{"type":"Feature","properties":{"name":"0f491691c1ca","address":"42 rue Eugène Carrière 75018 Paris"},"geometry":{"type":"Point","coordinates":[2.333888,48.891337]}},{"type":"Feature","properties":{"name":"c0351e7eb743","address":"17 place Bellecour 69002 Lyon"},"geometry":{"type":"Point","coordinates":[4.834042,45.757294]}},{"type":"Feature","properties":{"name":"aabacc71134c","address":"282 rue des Pyrénées 75020 Paris"},"geometry":{"type":"Point","coordinates":[2.394004,48.870578]}},{"type":"Feature","properties":{"name":"9d8d8d2e0c4b","address":"Chatswood Business Park, 9U/175 Lower Gibbes St, Chatswood East NSW 2067"},"geometry":{"type":"Point","coordinates":[151.1973,-33.783876]}},{"type":"Feature","properties":{"name":"f6b8b385f335","address":"12023 Vose St Unit 23, North Hollywood, CA 91605"},"geometry":{"type":"Point","coordinates":[-118.394966,34.199681]}},{"type":"Feature","properties":{"name":"2322497639c8","address":"Ottakringer Str. 16, 1170 Wien"},"geometry":{"type":"Point","coordinates":[16.339604,48.215435]}},{"type":"Feature","properties":{"name":"052ef036e589","address":"Thorvald Meyers Gate 7, 0555 Oslo"},"geometry":{"type":"Point","coordinates":[10.758086,59.929683]}},{"type":"Feature","properties":{"name":"44d42c0789b7","address":"11318 Santa Monica Blvd, Los Angeles, CA 90025"},"geometry":{"type":"Point","coordinates":[-118.449041,34.046268]}},{"type":"Feature","properties":{"name":"1f0d3e1c8549","address":"95 Buckhurst St, South Melbourne VIC 3205"},"geometry":{"type":"Point","coordinates":[144.950106,-37.831215]}},{"type":"Feature","properties":{"name":"27f00ba7239a","address":"42 Maddox St, Alexandria NSW 2015"},"geometry":{"type":"Point","coordinates":[151.193285,-33.907394]}},{"type":"Feature","properties":{"name":"b5871201856d","address":"Seyrantepe Mahallesi, Narin Sk. No:3/A, 34418 Kâğıthane/İstanbul"},"geometry":{"type":"Point","coordinates":[28.983767,41.099747]}},{"type":"Feature","properties":{"name":"bc9f6591dbd8","address":"957 Cole Ave, Los Angeles, CA 90038"},"geometry":{"type":"Point","coordinates":[-118.330165,34.088804]}},{"type":"Feature","properties":{"name":"00b2fbb35b9c","address":"1st Floor, 28/56, Block 28, West Patel Nagar, Patel Nagar, Delhi, 110008"},"geometry":{"type":"Point","coordinates":[77.163843,28.65367]}},{"type":"Feature","properties":{"name":"971f99597810","address":"Westpoint, Unit 10, Trading Estate Rd, Alliance Rd, London W3 0RA"},"geometry":{"type":"Point","coordinates":[-0.275762,51.523618]}},{"type":"Feature","properties":{"name":"c4a191d9adbc","address":"599 11th Ave Ground Floor, New York, NY 10036"},"geometry":{"type":"Point","coordinates":[-73.997388,40.762744]}},{"type":"Feature","properties":{"name":"686261dfba0e","address":"38 bis rue Paul Vaillant Couturier 92240 Malakoff"},"geometry":{"type":"Point","coordinates":[2.29737,48.812951]}},{"type":"Feature","properties":{"name":"63393433dd31","address":"1323 N 1st St, Bellaire, TX 77401"},"geometry":{"type":"Point","coordinates":[-95.463601,29.723773]}},{"type":"Feature","properties":{"name":"a1e9574021c4","address":"118 Wentworth Ave, Banksmeadow NSW 2019"},"geometry":{"type":"Point","coordinates":[151.216925,-33.94251]}},{"type":"Feature","properties":{"name":"cf05450c078b","address":"195 Rouse St, Port Melbourne VIC 3207"},"geometry":{"type":"Point","coordinates":[144.938244,-37.841541]}},{"type":"Feature","properties":{"name":"c417118e00dc","address":"Rua do Freixo, 1071 A.3, 4300-219 Porto"},"geometry":{"type":"Point","coordinates":[-8.579914,41.145408]}},{"type":"Feature","properties":{"name":"3952ded9f0f3","address":"21151 S Western Ave Ste 100, Torrance, CA 90501"},"geometry":{"type":"Point","coordinates":[-118.309744,33.837179]}},{"type":"Feature","properties":{"name":"116c9fca2614","address":"7-11 rue de l'Industrie 92230 Gennevilliers"},"geometry":{"type":"Point","coordinates":[2.310369,48.931943]}},{"type":"Feature","properties":{"name":"f475b0c6572e","address":"1 Tampines North Dr. 1, #07-10, Singapour 528559"},"geometry":{"type":"Point","coordinates":[103.754096,1.343513]}},{"type":"Feature","properties":{"name":"922cc187402a","address":"7, Jalan Pertama 5, Pusat Perdagangan Danga Utama, 81300 Johor Bahru"},"geometry":{"type":"Point","coordinates":[103.680104,1.518429]}},{"type":"Feature","properties":{"name":"ddbdfdb78ade","address":"9 rue des Fillettes 93210 Saint-Denis"},"geometry":{"type":"Point","coordinates":[2.365565,48.909674]}},{"type":"Feature","properties":{"name":"209e1b2ec748","address":"5/10 rue des Terres Neuves 33130 Bègles"},"geometry":{"type":"Point","coordinates":[-0.552182,44.814054]}},{"type":"Feature","properties":{"name":"7e20f1e0d4e3","address":"79 rue Henri Fabre 34130 Maugio"},"geometry":{"type":"Point","coordinates":[2.342331,48.896622]}},{"type":"Feature","properties":{"name":"076b492fa16e","address":"37 rue Guibal 13003 Marseille"},"geometry":{"type":"Point","coordinates":[5.389752,43.309441]}},{"type":"Feature","properties":{"name":"67ebb3d874cc","address":"Boulevard Général Wahis 16EB 1030 Schaerbeek"},"geometry":{"type":"Point","coordinates":[4.399671,50.862832]}},{"type":"Feature","properties":{"name":"05ea09e8ad94","address":"Rue de Mulhouse 36 4020 Liège"},"geometry":{"type":"Point","coordinates":[5.585865,50.632757]}},{"type":"Feature","properties":{"name":"fe5f2de31505","address":"16 rue Cage 93400 Saint-Ouen"},"geometry":{"type":"Point","coordinates":[2.333794,48.917905]}},{"type":"Feature","properties":{"name":"aee76afd92c1","address":"Blücherstraße 28/29 10961 Berlin"},"geometry":{"type":"Point","coordinates":[13.402611,52.492073]}},{"type":"Feature","properties":{"name":"12d1d6bde8b7","address":"Kirchenstraße 89B 81675 München"},"geometry":{"type":"Point","coordinates":[11.60936,48.133387]}},{"type":"Feature","properties":{"name":"2ba9a46d04a3","address":"Nirim St 10, Tel Aviv-Yafo"},"geometry":{"type":"Point","coordinates":[34.791176,32.063258]}},{"type":"Feature","properties":{"name":"51d230dda67b","address":"113-121 avenue du Président Wilson 93210 La Plaine Saint-Denis"},"geometry":{"type":"Point","coordinates":[2.357951,48.907047]}},{"type":"Feature","properties":{"name":"cf3deb70448b","address":"1190 Avenue Van Volxem 1190 Bruxelles"},"geometry":{"type":"Point","coordinates":[4.325893,50.821554]}},{"type":"Feature","properties":{"name":"41eec85a1a2b","address":"Oberlandstraße 13-14 12099 Berlin"},"geometry":{"type":"Point","coordinates":[13.417032,52.465036]}},{"type":"Feature","properties":{"name":"1001d6c8de16","address":"Křížová 2601/2 150 00 Prague 5, Smíchov"},"geometry":{"type":"Point","coordinates":[14.407174,50.051147]}},{"type":"Feature","properties":{"name":"462cb86c4d65","address":"Altstraße 9 92637 Weiden"},"geometry":{"type":"Point","coordinates":[12.148268,49.673413]}},{"type":"Feature","properties":{"name":"8cb871bd3012","address":"757 West California Ave Building 4, Glendale, CA 91203"},"geometry":{"type":"Point","coordinates":[-118.272358,34.150348]}},{"type":"Feature","properties":{"name":"51b88d8de12a","address":"Gebäude 75 Kistlerhofstraße 70 81379 München"},"geometry":{"type":"Point","coordinates":[11.525789,48.096041]}},{"type":"Feature","properties":{"name":"9cad04bcb2c1","address":"74 boulevard de Reuilly 75012 Paris"},"geometry":{"type":"Point","coordinates":[2.398981,48.839546]}},{"type":"Feature","properties":{"name":"86a175d450ec","address":"Rue du Pré-Bouvier 8, 1242 Satigny"},"geometry":{"type":"Point","coordinates":[6.057223,46.224561]}},{"type":"Feature","properties":{"name":"bab7a4278d5b","address":"Bergstrasse 23, 8953 Dietikon"},"geometry":{"type":"Point","coordinates":[8.397997,47.403517]}},{"type":"Feature","properties":{"name":"64e25910f49d","address":"C. de Albasanz, 59, 28037 Madrid"},"geometry":{"type":"Point","coordinates":[-3.624024,40.438524]}},{"type":"Feature","properties":{"name":"f77af1981a06","address":"Av. Alcalde José Ramirez Bethencourt, 17, 35004 Las Palmas de Gran Canaria, Las Palmas"},"geometry":{"type":"Point","coordinates":[-15.42018,28.117109]}},{"type":"Feature","properties":{"name":"cabebded7e60","address":"Ermou 39, Elliniko 167 77"},"geometry":{"type":"Point","coordinates":[23.749431,37.899854]}},{"type":"Feature","properties":{"name":"157e66527218","address":"8363 Lougheed Hwy, Burnaby, BC V5A 1X3"},"geometry":{"type":"Point","coordinates":[-122.92212,49.254617]}},{"type":"Feature","properties":{"name":"4c4a7dbd938c","address":"800 Islington Ave, Etobicoke, ON M8Z 6A1"},"geometry":{"type":"Point","coordinates":[-79.511482,43.616288]}},{"type":"Feature","properties":{"name":"bb7a10ced936","address":"5750 76 Ave SE Unit 50, Calgary, AB T2C 5N5"},"geometry":{"type":"Point","coordinates":[-113.950269,50.98528]}},{"type":"Feature","properties":{"name":"a78aab695903","address":"315 Wilkinson Ave #1, Dartmouth, NS B3B"},"geometry":{"type":"Point","coordinates":[-63.575863,44.723127]}},{"type":"Feature","properties":{"name":"055a85b4f509","address":"2073 Logan Ave #11, Winnipeg, MB R2R 0J1"},"geometry":{"type":"Point","coordinates":[-97.21078,49.926972]}},{"type":"Feature","properties":{"name":"00a31681a427","address":"922 Cambrian Heights Dr Unit 2, Sudbury, ON P3C 5M6"},"geometry":{"type":"Point","coordinates":[-80.987133,46.513657]}},{"type":"Feature","properties":{"name":"7c41b79053df","address":"Paseo de Los Parques 4372, Universitaria, 45110 Zapopan, Jal."},"geometry":{"type":"Point","coordinates":[-103.414798,20.694117]}},{"type":"Feature","properties":{"name":"353dc326067a","address":"Carrer d'Àlaba, 51, Bajos 3ª, 08005 Barcelona"},"geometry":{"type":"Point","coordinates":[2.194658,41.395714]}},{"type":"Feature","properties":{"name":"942738b5ad5e","address":"13428 Beach Ave, Marina Del Rey, CA 90292"},"geometry":{"type":"Point","coordinates":[-118.444745,33.990765]}},{"type":"Feature","properties":{"name":"638b1b2c6165","address":"2440 Tedlo St, Mississauga, ON L5A 3V3"},"geometry":{"type":"Point","coordinates":[-79.598884,43.588256]}},{"type":"Feature","properties":{"name":"b4acd339a3c4","address":"3 rue Meissonnier 93500 Pantin"},"geometry":{"type":"Point","coordinates":[2.412785,48.888618]}},{"type":"Feature","properties":{"name":"973a65eb56bf","address":"801 S Main St, Burbank, CA 91506"},"geometry":{"type":"Point","coordinates":[-118.312952,34.16523]}},{"type":"Feature","properties":{"name":"108c63c48cc4","address":"88 35th St 4th Floor, Brooklyn, NY 11232"},"geometry":{"type":"Point","coordinates":[-74.006785,40.656432]}},{"type":"Feature","properties":{"name":"5f2357548c08","address":"2602 W 16th St 4th floor, Chicago, IL 60608"},"geometry":{"type":"Point","coordinates":[-87.691056,41.859397]}},{"type":"Feature","properties":{"name":"ed452e599aa5","address":"Carrer del Consell de Cent, 201, 08011 Barcelona"},"geometry":{"type":"Point","coordinates":[2.156593,41.384402]}},{"type":"Feature","properties":{"name":"22460c30aa95","address":"P.O. Box 111046, Dubai"},"geometry":{"type":"Point","coordinates":[55.222494,25.140378]}},{"type":"Feature","properties":{"name":"adbff1176e35","address":"5625 Melrose Ave, Hollywood, CA 90038"},"geometry":{"type":"Point","coordinates":[-118.323093,34.083905]}},{"type":"Feature","properties":{"name":"5579a08d1dc3","address":"Sahaajankatu 28, 00880 Helsinki"},"geometry":{"type":"Point","coordinates":[25.0471,60.20174]}},{"type":"Feature","properties":{"name":"36b1d32b3c1d","address":"Videviku 29, 10131 Tallinn"},"geometry":{"type":"Point","coordinates":[24.73457,59.42405]}},{"type":"Feature","properties":{"name":"8205fbec4b3c","address":"3700 Vanowen St, Burbank, CA 91505"},"geometry":{"type":"Point","coordinates":[-118.351466,34.192218]}},{"type":"Feature","properties":{"name":"86be2faab2ec","address":"25 Enterprise Ave N, Secaucus, NJ 07094"},"geometry":{"type":"Point","coordinates":[-74.069875,40.784272]}},{"type":"Feature","properties":{"name":"7175bda05c63","address":"20 Rangwee 2412 Luxembourg"},"geometry":{"type":"Point","coordinates":[6.139879,49.588714]}},{"type":"Feature","properties":{"name":"dda9f3279e58","address":"6150 Lougheed Highway, Unit C, Burnaby, BC V5B 2Z9"},"geometry":{"type":"Point","coordinates":[-122.977468,49.263368]}},{"type":"Feature","properties":{"name":"332c3a0d916b","address":"3 Highbridge, Oxford Road, Uxbridge, UB8 1LX"},"geometry":{"type":"Point","coordinates":[-0.486388,51.547778]}},{"type":"Feature","properties":{"name":"842c3e7a0931","address":"Room E105, Pinewood Studio Wales Wentloog Environmental Centre, Wentloog Avenue, Cardiff, CF3 2GH"},"geometry":{"type":"Point","coordinates":[-3.101991,51.50683]}},{"type":"Feature","properties":{"name":"28f49d5e7cee","address":"Pottendorfer Str. 23-25, 1120 Wien"},"geometry":{"type":"Point","coordinates":[16.33017,48.169473]}},{"type":"Feature","properties":{"name":"c3b6a0d2b72b","address":"Na Radosti 420, Building 5 15521 Prague 5, Zlicín"},"geometry":{"type":"Point","coordinates":[14.277865,50.058303]}},{"type":"Feature","properties":{"name":"8e29bec82812","address":"Magyarországi Fióktelepe, Felsőkert utca. 6, 1151 Budapest"},"geometry":{"type":"Point","coordinates":[19.138663,47.581468]}},{"type":"Feature","properties":{"name":"24cb3389db8a","address":"Gaußstraße 17 10589 Berlin"},"geometry":{"type":"Point","coordinates":[13.308266,52.530252]}},{"type":"Feature","properties":{"name":"4153555ab211","address":"Münchener Str. 101 85737 Ismaning"},"geometry":{"type":"Point","coordinates":[11.661166,48.21162]}},{"type":"Feature","properties":{"name":"dd146e23b8a0","address":"Altenburger Str. 11 04275 Leipzig"},"geometry":{"type":"Point","coordinates":[12.383682,51.317978]}},{"type":"Feature","properties":{"name":"2e1465f829bd","address":"Heinrich-Pesch-Straße 7 50739 Köln"},"geometry":{"type":"Point","coordinates":[6.924948,50.976547]}},{"type":"Feature","properties":{"name":"bb262791d9db","address":"236 Greenpoint Ave, Brooklyn, NY 11222"},"geometry":{"type":"Point","coordinates":[-73.950377,40.730597]}},{"type":"Feature","properties":{"name":"0620f72171ee","address":"29, Jalan PJU 3/47, Sunway Damansara, 47810 Petaling Jaya, Selangor"},"geometry":{"type":"Point","coordinates":[101.597863,3.165234]}},{"type":"Feature","properties":{"name":"f98955350649","address":"Miguel Laurent 211, Col del Valle, 03100 Ciudad de México, CDMX"},"geometry":{"type":"Point","coordinates":[-99.171434,19.376382]}},{"type":"Feature","properties":{"name":"897219ee42d1","address":"Brunner Strasse 63/23, Halle 4N, 1230 Wien"},"geometry":{"type":"Point","coordinates":[16.300197,48.140595]}},{"type":"Feature","properties":{"name":"8ec9414071a7","address":"39 Rue Maurice Gunsbourg 94200 Ivry-sur-Seine"},"geometry":{"type":"Point","coordinates":[2.404031,48.81189]}},{"type":"Feature","properties":{"name":"bb6098cb8ef0","address":"Rue Auguste De Boeck 68B, 1140 Evere"},"geometry":{"type":"Point","coordinates":[4.400205,50.864274]}},{"type":"Feature","properties":{"name":"36d6ee9965a2","address":"3039 Roswell St, Los Angeles, CA 90065"},"geometry":{"type":"Point","coordinates":[-118.244199,34.115383]}},{"type":"Feature","properties":{"name":"932c9d4b3151","address":"11875 W Little York Rd Suite 1101, Houston, TX 77041"},"geometry":{"type":"Point","coordinates":[-95.586122,29.863762]}},{"type":"Feature","properties":{"name":"e0d68ca716a9","address":"3921 W Jefferson Blvd, Los Angeles, CA 90016"},"geometry":{"type":"Point","coordinates":[-118.338953,34.025741]}},{"type":"Feature","properties":{"name":"a555d016e089","address":"6700 S Centinela Ave, 2nd Floor, Culver City, CA 90230"},"geometry":{"type":"Point","coordinates":[-118.404674,33.984057]}},{"type":"Feature","properties":{"name":"531a25dd23a8","address":"1500 Whiting St SW, Wyoming, MI 49509"},"geometry":{"type":"Point","coordinates":[-85.703941,42.937011]}},{"type":"Feature","properties":{"name":"72512304c814","address":"1193 Grant St, Vancouver, BC V6A 2J7"},"geometry":{"type":"Point","coordinates":[-123.079153,49.271844]}},{"type":"Feature","properties":{"name":"9dbfcd1c03b4","address":"29 rue Cartier Bresson 93500 Pantin"},"geometry":{"type":"Point","coordinates":[2.397506,48.902999]}},{"type":"Feature","properties":{"name":"64a2766d1015","address":"Roma, Colima 300, Roma Nte., Cuauhtémoc, 06700 Ciudad de México, CDMX"},"geometry":{"type":"Point","coordinates":[-99.165736,19.418622]}},{"type":"Feature","properties":{"name":"d97e595a82cb","address":"H.J.E. Wenckebachweg 135, 1096 AM Amsterdam"},"geometry":{"type":"Point","coordinates":[4.932784,52.336862]}},{"type":"Feature","properties":{"name":"87be9b94010a","address":"Calle de Sta. Isabel, 13, 28108 Alcobendas, Madrid"},"geometry":{"type":"Point","coordinates":[-3.645347,40.535799]}},{"type":"Feature","properties":{"name":"70e22ccebda6","address":"Duivendrechtsekade 65, 1096 AH Amsterdam"},"geometry":{"type":"Point","coordinates":[4.932647,52.337959]}},{"type":"Feature","properties":{"name":"6c4dcb9dc8f8","address":"Leuvensesteenweg 248 Fb, 1800 Vilvoorde"},"geometry":{"type":"Point","coordinates":[4.448897,50.923393]}},{"type":"Feature","properties":{"name":"0e4ffb9336b9","address":"Wilhelm-Kabus-Straße 77, 10829 Berlin"},"geometry":{"type":"Point","coordinates":[13.364501,52.478033]}},{"type":"Feature","properties":{"name":"0cc265b081d1","address":"8/111 Old Pittwater Road, Brookvale NSW 2100"},"geometry":{"type":"Point","coordinates":[151.262519,-33.766]}},{"type":"Feature","properties":{"name":"a32031463fad","address":"Workit Spaces, B1/13-21 Mandible St, Alexandria NSW 2015"},"geometry":{"type":"Point","coordinates":[151.199895,-33.904043]}},{"type":"Feature","properties":{"name":"708814bd49d1","address":"1113 Vine St Houston, TX 77002"},"geometry":{"type":"Point","coordinates":[-95.357259,29.768595]}},{"type":"Feature","properties":{"name":"06089c033094","address":"Calle Severo Ochoa, 15, Nave 5, 28521 Rivas-Vaciamadrid, Madrid"},"geometry":{"type":"Point","coordinates":[-3.522128,40.336303]}},{"type":"Feature","properties":{"name":"fa564265e16b","address":"Torrent de Vallmajor, 94C, Nave 4 Badalona, 08915 Barcelona"},"geometry":{"type":"Point","coordinates":[2.255442,41.464778]}},{"type":"Feature","properties":{"name":"b35e26727869","address":"Marcus Thranes Gate 4C, 0473 Oslo"},"geometry":{"type":"Point","coordinates":[10.759063,59.933542]}},{"type":"Feature","properties":{"name":"6e9ebde7a5d0","address":"Västmannagatan 17, 113 25 Stockholm"},"geometry":{"type":"Point","coordinates":[18.051485,59.33766]}},{"type":"Feature","properties":{"name":"ebc07377100e","address":"Sankt Eriksgatan 128, 113 43 Stockholm"},"geometry":{"type":"Point","coordinates":[18.040587,59.347335]}},{"type":"Feature","properties":{"name":"8b7f5603360c","address":"Via Vincenzo Rabolini, 4, 20125 Milano MI"},"geometry":{"type":"Point","coordinates":[9.201968,45.505201]}},{"type":"Feature","properties":{"name":"f6ebe8a4bcac","address":"Viale Tor Marancia, 68, 00147 Roma RM"},"geometry":{"type":"Point","coordinates":[12.497595,41.853021]}},{"type":"Feature","properties":{"name":"521a3ff6e16f","address":"Duivendrechtsekade 72, 1096 AH Amsterdam"},"geometry":{"type":"Point","coordinates":[4.932151,52.337589]}},{"type":"Feature","properties":{"name":"5212215e0497","address":"14 Anning St, Hackney, London EC2A 3HB"},"geometry":{"type":"Point","coordinates":[-0.078065,51.524828]}},{"type":"Feature","properties":{"name":"62fe51d55f06","address":"4221 W Magnolia Blvd, Burbank, CA 91505"},"geometry":{"type":"Point","coordinates":[-118.352973,34.166262]}},{"type":"Feature","properties":{"name":"634910efc062","address":"1600 Oakbrook Dr #520, Norcross, GA 30093"},"geometry":{"type":"Point","coordinates":[-84.194462,33.913756]}},{"type":"Feature","properties":{"name":"6daf153b4348","address":"Van Aldegondebaan 7, 4615 AZ Bergen op Zoom"},"geometry":{"type":"Point","coordinates":[4.295045,51.486981]}},{"type":"Feature","properties":{"name":"00767c4a3faf","address":"5706-F General Washington Dr. Alexandria, VA 22312"},"geometry":{"type":"Point","coordinates":[-77.167221,38.797899]}},{"type":"Feature","properties":{"name":"920944ce657d","address":"Bruselas 2865, Asunción"},"geometry":{"type":"Point","coordinates":[-57.55688,-25.289613]}},{"type":"Feature","properties":{"name":"3a5c51c61573","address":"202 Azar Ct, Baltimore, MD 21227"},"geometry":{"type":"Point","coordinates":[-76.680477,39.258078]}},{"type":"Feature","properties":{"name":"588478b45c4e","address":"1336 Ninth St, Berkeley, CA 94710"},"geometry":{"type":"Point","coordinates":[-122.298005,37.878883]}},{"type":"Feature","properties":{"name":"3fb940599b9c","address":"Rua Senador Joaquim Ribeiro do Valle, 340, Galpão 3A - Vila Leopoldina, São Paulo - SP, 05311-010"},"geometry":{"type":"Point","coordinates":[-46.740218,-23.527171]}},{"type":"Feature","properties":{"name":"6c8f06403ecb","address":"11 bis rue Charles Fourier 75013 Paris"},"geometry":{"type":"Point","coordinates":[2.352063,48.824689]}},{"type":"Feature","properties":{"name":"a87c29684958","address":"Unknow"},"geometry":{"type":"Point","coordinates":[2.386371,48.859942]}},{"type":"Feature","properties":{"name":"f6df44933bae","address":"16 rue Bourrely 34000 Montpellier"},"geometry":{"type":"Point","coordinates":[3.869342,43.602913]}},{"type":"Feature","properties":{"name":"05c24cc3e218","address":"4700 W Jefferson Blvd, Ste 102, Los Angeles, CA 90016"},"geometry":{"type":"Point","coordinates":[-118.347472,34.025352]}},{"type":"Feature","properties":{"name":"e7fee932a372","address":"Via dell' Azoto, 4, 30175 Venezia VE"},"geometry":{"type":"Point","coordinates":[12.241948,45.464348]}},{"type":"Feature","properties":{"name":"2e07d94b6b8e","address":"Cra. 72a No. 24-72, Bogotá"},"geometry":{"type":"Point","coordinates":[-74.115965,4.663154]}},{"type":"Feature","properties":{"name":"483d2ee02887","address":"6158 Olson Memorial Hwy, Golden Valley, MN 55422"},"geometry":{"type":"Point","coordinates":[-93.358381,44.987905]}},{"type":"Feature","properties":{"name":"2c9a0ffdaa6e","address":"#62 báimǎ lù, Mapo Town, Shunyi District"},"geometry":{"type":"Point","coordinates":[116.657976,40.172038]}},{"type":"Feature","properties":{"name":"eb822849168b","address":"Iggelhorst 17, 44149 Dortmund"},"geometry":{"type":"Point","coordinates":[7.406475,51.507698]}},{"type":"Feature","properties":{"name":"984f863716d7","address":"Peterburi tee 34/4, 13520 Tallinn"},"geometry":{"type":"Point","coordinates":[24.807114,59.425535]}},{"type":"Feature","properties":{"name":"10e44bd88a7f","address":"7 Cumberland Rd, Kowloon Tong"},"geometry":{"type":"Point","coordinates":[114.177553,22.327979]}},{"type":"Feature","properties":{"name":"55e7e7f21503","address":"Xi San Qi, Hai Dian Qu,Beijing, China Beijing"},"geometry":{"type":"Point","coordinates":[116.36157,40.062102]}},{"type":"Feature","properties":{"name":"3c824a254196","address":"No. 5 Hua Tai Road, Hua Zhou Street, Hai Zhu District, Guangzhou"},"geometry":{"type":"Point","coordinates":[113.340867,23.070058]}},{"type":"Feature","properties":{"name":"44637fc15e08","address":"Unit 8, No.2328 Chunshen Road, Minhang District, Shanghai"},"geometry":{"type":"Point","coordinates":[121.410397,31.109432]}},{"type":"Feature","properties":{"name":"5dea7105fff1","address":"4 2nd St, Pasig, Metro Manila"},"geometry":{"type":"Point","coordinates":[121.059695,14.575126]}},{"type":"Feature","properties":{"name":"9e4fd9806f2f","address":"165 Sukhumvit 71 Road,  Prakanong Nua, Wattana,  Bangkok 10110"},"geometry":{"type":"Point","coordinates":[100.595335,13.717356]}},{"type":"Feature","properties":{"name":"0b5e72235bf4","address":"17, Jalan Tembaga SD 5/2, Bandar Sri Damansara, 52200 Kuala Lumpur, Selangor"},"geometry":{"type":"Point","coordinates":[101.6169,3.200502]}},{"type":"Feature","properties":{"name":"199997c7be8c","address":"6 rue de Villé 67220 Neuve-Eglise"},"geometry":{"type":"Point","coordinates":[7.312576,48.336328]}},{"type":"Feature","properties":{"name":"00c7da2364dc","address":"1419 E 40th St, Cleveland, OH 44103"},"geometry":{"type":"Point","coordinates":[-81.662792,41.515343]}},{"type":"Feature","properties":{"name":"aa85f939986c","address":"Av. Pdte. Eduardo Frei Montalva 6001, Conchalí"},"geometry":{"type":"Point","coordinates":[-70.697338,-33.369259]}},{"type":"Feature","properties":{"name":"3c7da39596d7","address":"Cra. 65 #81-58, Bogotá"},"geometry":{"type":"Point","coordinates":[-74.076554,4.683467]}},{"type":"Feature","properties":{"name":"c16380a4ad6e","address":"5723 Auckland Ave, North Hollywood, CA 91601"},"geometry":{"type":"Point","coordinates":[-118.36077,34.174725]}},{"type":"Feature","properties":{"name":"bdb3a5967bb8","address":"7-9 rue des Cottages 75018 Paris"},"geometry":{"type":"Point","coordinates":[2.337563,48.891004]}},{"type":"Feature","properties":{"name":"ef64f0906522","address":"3603 Seneca Ave #3, Los Angeles, CA 90039"},"geometry":{"type":"Point","coordinates":[-118.258013,34.121054]}},{"type":"Feature","properties":{"name":"f17b18822117","address":"Exportgatan 38D, 422 46 Hisings Backa"},"geometry":{"type":"Point","coordinates":[11.99339,57.74555]}},{"type":"Feature","properties":{"name":"72eb880975d3","address":"Harpsundsvägen 199-201, 124 59 Bandhagen"},"geometry":{"type":"Point","coordinates":[18.05361,59.25973]}},{"type":"Feature","properties":{"name":"9bb75c7096e3","address":"Moråsvägen 5, 961 67 Boden"},"geometry":{"type":"Point","coordinates":[21.7163,65.83795]}},{"type":"Feature","properties":{"name":"38913364b74c","address":"Lützowstraße 33, 10785 Berlin"},"geometry":{"type":"Point","coordinates":[13.360058,52.504357]}},{"type":"Feature","properties":{"name":"7c85e23b6813","address":"Rüdigergasse 16, 1050 Wien"},"geometry":{"type":"Point","coordinates":[16.356581,48.194551]}},{"type":"Feature","properties":{"name":"0c749b77659e","address":"Vining Street, 1900 Belmont Ave, Victoria, BC V8R 3Z4"},"geometry":{"type":"Point","coordinates":[-123.339273,48.429977]}},{"type":"Feature","properties":{"name":"5b5bbc68fc33","address":"189 Rue d'Aubervilliers CAP 18 - Unit A53/55 75018 Paris"},"geometry":{"type":"Point","coordinates":[2.367685,48.895513]}},{"type":"Feature","properties":{"name":"34ae95680967","address":"200-202 Hercules Road, Waterloo, London SE1 7LD"},"geometry":{"type":"Point","coordinates":[-0.114947,51.497515]}},{"type":"Feature","properties":{"name":"518152a4695e","address":"3F, Space Studios, Vaughan St, Manchester M12 5FQ"},"geometry":{"type":"Point","coordinates":[-2.197976,53.470294]}},{"type":"Feature","properties":{"name":"7d5b06ac3af5","address":"Cape Island Studios, 3 Sanlam Business Park, Koeberg Road, Milnerton, Cape Town, 7435"},"geometry":{"type":"Point","coordinates":[18.510324,-33.866662]}},{"type":"Feature","properties":{"name":"f6e9e205b3eb","address":"231 W 29th St Suite 210, New York, NY 10001"},"geometry":{"type":"Point","coordinates":[-73.994171,40.748667]}},{"type":"Feature","properties":{"name":"b45015d6e539","address":"Rua Heliópolis, 75 - Vila Hamburguesa, São Paulo - SP, 05318-010"},"geometry":{"type":"Point","coordinates":[-46.729167,-23.533988]}},{"type":"Feature","properties":{"name":"a1fa3e413d49","address":"6 boulevard de la Libération 93200 Saint-Denis"},"geometry":{"type":"Point","coordinates":[2.341064,48.928512]}},{"type":"Feature","properties":{"name":"f118a13ebf25","address":"Slamastrasse 43, 1230 Wien"},"geometry":{"type":"Point","coordinates":[16.338198,48.137301]}},{"type":"Feature","properties":{"name":"710cf514b369","address":"2122 Aaron St, Los Angeles, CA 90026"},"geometry":{"type":"Point","coordinates":[-118.259184,34.08651]}},{"type":"Feature","properties":{"name":"6c4b479b072d","address":"Calle Sta. Leonor, 61, 1º Piso - Oficina 2, 28037 Madrid"},"geometry":{"type":"Point","coordinates":[-3.628329,40.433836]}},{"type":"Feature","properties":{"name":"3b4e9a2d16c1","address":"16 avenue Claude Chappe 33600 Pessac"},"geometry":{"type":"Point","coordinates":[-0.666364,44.779536]}},{"type":"Feature","properties":{"name":"f92978ffa2f2","address":"Woluwelaan 141C, 1831 Machelen"},"geometry":{"type":"Point","coordinates":[4.44592,50.89177]}},{"type":"Feature","properties":{"name":"147a50870fde","address":"32 rue Raspail 93120 La Courneuve"},"geometry":{"type":"Point","coordinates":[2.396877,48.922678]}},{"type":"Feature","properties":{"name":"37fd166c87c4","address":"6 place de Nancy 1544 Luxembourg"},"geometry":{"type":"Point","coordinates":[6.118202,49.603442]}},{"type":"Feature","properties":{"name":"d9e2c029b8b5","address":"33 rue du Maréchal Lefebvre 67100 Strasbourg"},"geometry":{"type":"Point","coordinates":[7.740181,48.561282]}},{"type":"Feature","properties":{"name":"72e44dacd8c4","address":"Rue Simon-Durand 11, 1227 Genève"},"geometry":{"type":"Point","coordinates":[6.138921,46.190231]}},{"type":"Feature","properties":{"name":"e2b11bc3e059","address":"9 impasse Léonce Couture 31200 Toulouse"},"geometry":{"type":"Point","coordinates":[1.474391,43.637721]}},{"type":"Feature","properties":{"name":"1b9956bf6686","address":"Georg-Wilhelm-Straße 2 10711 Berlin"},"geometry":{"type":"Point","coordinates":[13.29054,52.498089]}},{"type":"Feature","properties":{"name":"7078c632f8f0","address":"Aschauer Str. 8 81549 München"},"geometry":{"type":"Point","coordinates":[11.599637,48.106989]}},{"type":"Feature","properties":{"name":"414ffd459d1b","address":"Esentepe, Gazeteciler Sit. Dergiler Sk. No:3, 34360 Şişli/İstanbul"},"geometry":{"type":"Point","coordinates":[29.00796,41.07001]}},{"type":"Feature","properties":{"name":"890e10bef01f","address":"Warehouse B34, International Media Production Zone, Dubai"},"geometry":{"type":"Point","coordinates":[55.18777,25.02992]}},{"type":"Feature","properties":{"name":"5a130bb1407d","address":"TwoFour54, Studios Musaffah, Abu Dhabi"},"geometry":{"type":"Point","coordinates":[54.524434,24.321743]}},{"type":"Feature","properties":{"name":"8010dcd878a4","address":"M-212, Himmat Singh Marg, Nai Basti, Lado Sarai, New Delhi, Delhi 110030"},"geometry":{"type":"Point","coordinates":[77.196343,28.524582]}},{"type":"Feature","properties":{"name":"9e1db9ba85d8","address":"B-G-07 Block C Pusat Dagangan NZX, Jalan PJU 1A/41B, Ara Damansara, 47301 Petaling Jaya, Selangor"},"geometry":{"type":"Point","coordinates":[101.590275,3.114694]}},{"type":"Feature","properties":{"name":"adb014324f64","address":"ZI Jarry, Immeuble Orlando, Baie-Mahault 97122, Guadeloupe"},"geometry":{"type":"Point","coordinates":[-61.568992,6.240019]}},{"type":"Feature","properties":{"name":"d79fc214a6bb","address":"29 bis Rue Henri Barbusse 75005 Paris"},"geometry":{"type":"Point","coordinates":[2.338833,48.841164]}},{"type":"Feature","properties":{"name":"e94d92671329","address":"4822 E Cesar Chavez St, Austin, TX 78702"},"geometry":{"type":"Point","coordinates":[-97.702027,30.252194]}},{"type":"Feature","properties":{"name":"850a168a0bcf","address":"Av. de los Montes de Oca, 20, Nave 3, 28703 San Sebastián de los Reyes, Madrid"},"geometry":{"type":"Point","coordinates":[-3.612481,40.551102]}},{"type":"Feature","properties":{"name":"16ade880a41c","address":"5009 Exposition Blvd, Los Angeles, CA 90016"},"geometry":{"type":"Point","coordinates":[-118.352488,34.025187]}},{"type":"Feature","properties":{"name":"dbe0465b5482","address":"3100 N Damon Way, Burbank, CA 91505"},"geometry":{"type":"Point","coordinates":[-118.360829,34.205084]}},{"type":"Feature","properties":{"name":"3a0b0b9af1e4","address":"6A St, Al Quoz, Dubai"},"geometry":{"type":"Point","coordinates":[55.224254,25.14028]}},{"type":"Feature","properties":{"name":"0767d1f3b9aa","address":"Dubai Studio City, Al Quoz 3, Dubai"},"geometry":{"type":"Point","coordinates":[55.238652,25.166093]}},{"type":"Feature","properties":{"name":"88ada5211710","address":"254 rue F. Pressensé Bât 5 69100 Villeurbanne"},"geometry":{"type":"Point","coordinates":[4.891698,45.769279]}},{"type":"Feature","properties":{"name":"b00663cc9ac5","address":"47 bis Rue Thiers, 92100 Boulogne-Billancourt"},"geometry":{"type":"Point","coordinates":[2.248656,48.836781]}},{"type":"Feature","properties":{"name":"b01acce5b1c7","address":"Calle Nva 1757, Huechuraba, Santiago"},"geometry":{"type":"Point","coordinates":[-70.679941,-33.361892]}},{"type":"Feature","properties":{"name":"d91bf134c360","address":"325 38th St, Brooklyn, NY 11232"},"geometry":{"type":"Point","coordinates":[-74.006706,40.654239]}},{"type":"Feature","properties":{"name":"0045daaef297","address":"Gjerdrumsvei 6, N-0484 Oslo"},"geometry":{"type":"Point","coordinates":[10.766061,59.953019]}},{"type":"Feature","properties":{"name":"d494c3ec5ec6","address":"Rådmandsgade 37-39, 2200 København"},"geometry":{"type":"Point","coordinates":[12.550499,55.700114]}},{"type":"Feature","properties":{"name":"0313bb1a6d7c","address":"Gamlestadsvägen 4 - B2, 415 02, Göteborg"},"geometry":{"type":"Point","coordinates":[12.006327,57.726143]}},{"type":"Feature","properties":{"name":"200f0b005931","address":"Laippatie 14, 00880 Helsinki"},"geometry":{"type":"Point","coordinates":[25.047167,60.210434]}},{"type":"Feature","properties":{"name":"a5e9464d52a2","address":"Dieselstraße 3 85774 Unterföhring"},"geometry":{"type":"Point","coordinates":[11.652588,48.190277]}},{"type":"Feature","properties":{"name":"41178904b796","address":"5900 Blackwelder St, Culver City, CA 90232"},"geometry":{"type":"Point","coordinates":[-118.374794,34.030356]}},{"type":"Feature","properties":{"name":"4a4467587f4f","address":"2602 W 16th St 2nd floor, Chicago, IL 60608"},"geometry":{"type":"Point","coordinates":[-87.690977,41.859694]}},{"type":"Feature","properties":{"name":"52943311d8f6","address":"201 Evans Rd Suite 303, Harahan, LA 70123"},"geometry":{"type":"Point","coordinates":[-90.181861,29.944503]}},{"type":"Feature","properties":{"name":"3260134a7e4b","address":"812 W Layton Ave, Suite A, Salt Lake City, UT 84104"},"geometry":{"type":"Point","coordinates":[-111.914311,40.73026]}},{"type":"Feature","properties":{"name":"9ea79a65f618","address":"554 N Ave NW Suite A, Atlanta, GA 30318"},"geometry":{"type":"Point","coordinates":[-84.405459,33.769862]}},{"type":"Feature","properties":{"name":"260f4483b6ca","address":"815 Bellamah Ave NW, Albuquerque, NM 87102"},"geometry":{"type":"Point","coordinates":[-106.655433,35.10089]}},{"type":"Feature","properties":{"name":"239349944ff5","address":"1225 Keith Rd E #2, North Vancouver, BC V7J 1J3"},"geometry":{"type":"Point","coordinates":[-123.039614,49.312877]}},{"type":"Feature","properties":{"name":"b5dafb7118ab","address":"16 Overlea Blvd, Toronto, ON M4H 1A4"},"geometry":{"type":"Point","coordinates":[-79.351468,43.704098]}},{"type":"Feature","properties":{"name":"e5c07a481b7c","address":"Boulevard Général Wahis 16F, 1030 Bruxelles"},"geometry":{"type":"Point","coordinates":[4.399744,50.863841]}},{"type":"Feature","properties":{"name":"d43e679e7fa6","address":"Mindaugo st. 42A, Vilnius 01311"},"geometry":{"type":"Point","coordinates":[25.277136,54.671954]}},{"type":"Feature","properties":{"name":"0ab53984d527","address":"Henry Fordin katu 6F, 00150 Helsinki"},"geometry":{"type":"Point","coordinates":[24.925585,60.15247]}},{"type":"Feature","properties":{"name":"e0f9cf2b6c86","address":"2828 SE 14th Ave, Portland, OR 97202"},"geometry":{"type":"Point","coordinates":[-122.651391,45.502329]}},{"type":"Feature","properties":{"name":"db8a9a9136a2","address":"101 Nickerson St, Seattle, WA 98109"},"geometry":{"type":"Point","coordinates":[-122.355411,47.648332]}},{"type":"Feature","properties":{"name":"83f6e023daac","address":"Sandakerveien 24C, Bygg C3, 0473 Oslo"},"geometry":{"type":"Point","coordinates":[10.759066,59.934601]}},{"type":"Feature","properties":{"name":"43f7646eb52f","address":"Jöfursbás 4, 112 Reykjavík"},"geometry":{"type":"Point","coordinates":[-21.810742,64.152777]}},{"type":"Feature","properties":{"name":"1fc00ccc3b38","address":"2 Place Francis Chirat 13002 Marseille"},"geometry":{"type":"Point","coordinates":[5.367509,43.301446]}},{"type":"Feature","properties":{"name":455920988285,"address":"3975 Landmark St #700, Culver City, CA 90232"},"geometry":{"type":"Point","coordinates":[-118.386023,34.02631]}},{"type":"Feature","properties":{"name":"4dd3b51e8bed","address":"2239 Hartranft St, Philadelphia, PA 19145"},"geometry":{"type":"Point","coordinates":[-75.187233,39.911183]}},{"type":"Feature","properties":{"name":"3b9a62063c6a","address":"Fabriekstraat 81, 1800 Vilvoorde"},"geometry":{"type":"Point","coordinates":[4.446491,50.948609]}},{"type":"Feature","properties":{"name":"1a5778e64a63","address":"Nieuwe Hemweg 5B, 1013 BG Amsterdam"},"geometry":{"type":"Point","coordinates":[4.867009,52.394841]}},{"type":"Feature","properties":{"name":"111cd782b58e","address":"Backa Bergögata 12A, 422 46 Hisings Backa"},"geometry":{"type":"Point","coordinates":[11.99934,57.748]}},{"type":"Feature","properties":{"name":"08e9a5b2a7c6","address":"Voltavägen 9, 168 69 Bromma"},"geometry":{"type":"Point","coordinates":[18.11678,59.34384]}},{"type":"Feature","properties":{"name":"64b5be7cacb1","address":"173 rue du Faubourg Poissonnière 75009 Paris"},"geometry":{"type":"Point","coordinates":[2.349635,48.882127]}},{"type":"Feature","properties":{"name":"18b5cc7f4034","address":"6212 Banner Ave, Los Angeles, CA 90038"},"geometry":{"type":"Point","coordinates":[-118.324996,34.091676]}},{"type":"Feature","properties":{"name":"3936afa39301","address":"42 rue du Général Lizé 49100 Angers"},"geometry":{"type":"Point","coordinates":[-0.568347,47.489444]}},{"type":"Feature","properties":{"name":"0553364516d8","address":"Bergholzstraße 1-4 12099 Berlin"},"geometry":{"type":"Point","coordinates":[13.421358,52.457077]}},{"type":"Feature","properties":{"name":"e02b7debefb4","address":"Lehrer-Götz-Weg 17 81825 München"},"geometry":{"type":"Point","coordinates":[11.66855,48.124449]}},{"type":"Feature","properties":{"name":"7744dd903d4f","address":"Industriestraße 95 04229 Leipzig"},"geometry":{"type":"Point","coordinates":[12.329598,51.328136]}},{"type":"Feature","properties":{"name":"b31bd404832c","address":"Stolberger Str. 366/Haus C 50933 Köln"},"geometry":{"type":"Point","coordinates":[6.886943,50.942863]}},{"type":"Feature","properties":{"name":"e4b3e2aa1ffc","address":"Winsbergring 34 22525 Hamburg"},"geometry":{"type":"Point","coordinates":[9.915685,53.57644]}},{"type":"Feature","properties":{"name":"7f4a1765c956","address":"Erich-Kästner-Straße 1 99094 Erfurt"},"geometry":{"type":"Point","coordinates":[10.997936,50.961888]}},{"type":"Feature","properties":{"name":"1c72b2f98050","address":"Streichhoffeld 3 73457 Essingen"},"geometry":{"type":"Point","coordinates":[10.021803,48.820661]}},{"type":"Feature","properties":{"name":"7466f31af58e","address":"Trelleborggade 9, 2150 København"},"geometry":{"type":"Point","coordinates":[12.59319,55.706944]}},{"type":"Feature","properties":{"name":"a45f1319cee1","address":"Filmbyen 23, 8000 Aarhus"},"geometry":{"type":"Point","coordinates":[10.213889,56.150703]}},{"type":"Feature","properties":{"name":"c46ad4e68423","address":"Kokskovvej 28, 5750 Ringe"},"geometry":{"type":"Point","coordinates":[10.449336,55.217731]}},{"type":"Feature","properties":{"name":"45eb2174a24b","address":"54 rue Sedaine 75011 Paris"},"geometry":{"type":"Point","coordinates":[2.376179,48.857633]}},{"type":"Feature","properties":{"name":"0da8adbd1cb6","address":"Westerbachstraße 164, 65936 Frankfurt am Main"},"geometry":{"type":"Point","coordinates":[8.584168,50.124468]}},{"type":"Feature","properties":{"name":"289e9cf074a7","address":"11222 Washington Blvd, Culver City, CA 90230"},"geometry":{"type":"Point","coordinates":[-118.413235,34.00639]}},{"type":"Feature","properties":{"name":"a5b597061dd0","address":"Via Carlo Porta, 3, 20093 Cologno Monzese MI"},"geometry":{"type":"Point","coordinates":[9.291217,45.540702]}},{"type":"Feature","properties":{"name":"a6bd9d05c7d9","address":"Via Giulio Verne, 1, 20137 Milano MI"},"geometry":{"type":"Point","coordinates":[9.221597,45.446739]}},{"type":"Feature","properties":{"name":"a8bae65b9873","address":"3328 Waypoint Dr, Carrollton, TX 75006"},"geometry":{"type":"Point","coordinates":[-96.840017,32.985665]}},{"type":"Feature","properties":{"name":"bfdb9518ac95","address":"16585 N 92nd St Unit 104, Scottsdale, AZ 85260"},"geometry":{"type":"Point","coordinates":[-111.881889,33.636251]}},{"type":"Feature","properties":{"name":"52aa646535f5","address":"2931 S Tejon St B, Englewood, CO 80110"},"geometry":{"type":"Point","coordinates":[-105.011309,39.663508]}},{"type":"Feature","properties":{"name":"261ae7ea6339","address":"1901 E 51st St Unit 110, Austin, TX 78723"},"geometry":{"type":"Point","coordinates":[-97.695653,30.300298]}},{"type":"Feature","properties":{"name":"0df9045afe07","address":"Vilardebó 1272, 11800 Montevideo"},"geometry":{"type":"Point","coordinates":[-56.191262,-34.877283]}},{"type":"Feature","properties":{"name":"548074c4fcb4","address":"El Rosal 5187, Huechuraba"},"geometry":{"type":"Point","coordinates":[-70.648739,-33.370106]}},{"type":"Feature","properties":{"name":"78a66e4daaab","address":"620 E 11th St, Houston, TX 77008"},"geometry":{"type":"Point","coordinates":[-95.391145,29.790621]}},{"type":"Feature","properties":{"name":"de341974624c","address":"Carrer de Llull, 48, 08005 Barcelona"},"geometry":{"type":"Point","coordinates":[2.192085,41.393406]}},{"type":"Feature","properties":{"name":"d245844e5456","address":"La Cité du Cinéma, 20 rue Ampère 93210 Saint-Denis"},"geometry":{"type":"Point","coordinates":[2.336543,48.922772]}},{"type":"Feature","properties":{"name":"fd4eb7ad0077","address":"7 Kerr St, Preston VIC 3072"},"geometry":{"type":"Point","coordinates":[145.023708,-37.753728]}},{"type":"Feature","properties":{"name":"c4c2d74e443c","address":"11058 Randall St, Sun Valley, CA 91352"},"geometry":{"type":"Point","coordinates":[-118.371849,34.236713]}},{"type":"Feature","properties":{"name":"6be7c0e5c445","address":"20 Torlake Crescent, Etobicoke, ON M8Z 1B3"},"geometry":{"type":"Point","coordinates":[-79.52499,43.610894]}},{"type":"Feature","properties":{"name":"1063ab791d41","address":"1010 Polytek St Unit 10, Gloucester, ON K1J 9H9"},"geometry":{"type":"Point","coordinates":[-75.584087,45.456169]}},{"type":"Feature","properties":{"name":"8f5dab63056c","address":"Mithatpaşa, Kumsu Sk. No:11, 34075 Eyüpsultan/İstanbul"},"geometry":{"type":"Point","coordinates":[28.905557,41.159487]}},{"type":"Feature","properties":{"name":"718db43edbab","address":"Rua M Angeles Gandara 12, Nave C19, 15890 Santiago de Compostela, A Coruña"},"geometry":{"type":"Point","coordinates":[-8.521437,42.911032]}},{"type":"Feature","properties":{"name":"6f046ae756cb","address":"C. Curtidurías, 12b, 41002 Sevilla, EspagneC. Curtidurías, 12b, 41002 Sevilla"},"geometry":{"type":"Point","coordinates":[-5.99992,37.398351]}},{"type":"Feature","properties":{"name":"cc4a8e5a681c","address":"Plaza Avilés 1, 46988 Paterna"},"geometry":{"type":"Point","coordinates":[-0.46234,39.513588]}},{"type":"Feature","properties":{"name":"7e94d8df24c5","address":"Av. Montes de Oca 19, Nave 23, 28703 San Sebastián de los Reyes"},"geometry":{"type":"Point","coordinates":[-3.61118,40.552357]}},{"type":"Feature","properties":{"name":"5aacead11001","address":"Calle Eduard Maristany 396, 08918 Badalona"},"geometry":{"type":"Point","coordinates":[2.235243,41.430511]}},{"type":"Feature","properties":{"name":"825ea67f46a9","address":"Pôle Pixel 36 rue Emile Decorps 69100 Villeurbanne"},"geometry":{"type":"Point","coordinates":[4.898835,45.756379]}},{"type":"Feature","properties":{"name":"9e08b9e17dbb","address":"The Metropolitan Centre, Bristol Road, Greenford UB6 8GD"},"geometry":{"type":"Point","coordinates":[-0.359651,51.540075]}},{"type":"Feature","properties":{"name":"c1fa11545fbe","address":"2 quai de Brazza 33100 Bordeaux"},"geometry":{"type":"Point","coordinates":[-0.556792,44.85216]}},{"type":"Feature","properties":{"name":"e571db07dfe0","address":"107 avenue Henri Fréville 35200 Rennes"},"geometry":{"type":"Point","coordinates":[-1.673675,48.086118]}},{"type":"Feature","properties":{"name":"fb7018ad1acc","address":"48 rue Claude Balbastre 34070 Montpellier"},"geometry":{"type":"Point","coordinates":[3.861975,43.573077]}},{"type":"Feature","properties":{"name":"0e97b7f43e53","address":"6 boulevard Gueidon 13013 Marseille"},"geometry":{"type":"Point","coordinates":[5.420894,43.322322]}},{"type":"Feature","properties":{"name":"4bcfb51b92fa","address":"150 Varick St, New York, NY 10013"},"geometry":{"type":"Point","coordinates":[-74.005445,40.726278]}},{"type":"Feature","properties":{"name":"9df3fec32e1b","address":"1554 W Carroll Ave, Chicago, IL 60607"},"geometry":{"type":"Point","coordinates":[-87.66641,41.887535]}},{"type":"Feature","properties":{"name":"7ddf403a04a0","address":"8000 Jetstar Dr, Irving, TX 75063"},"geometry":{"type":"Point","coordinates":[-97.002157,32.915727]}},{"type":"Feature","properties":{"name":"a3a29917917e","address":"837 Distributors Row, New Orleans, LA 70123"},"geometry":{"type":"Point","coordinates":[-90.188473,29.955198]}},{"type":"Feature","properties":{"name":"eac7ffb08a51","address":"1250 Menlo Dr NW, Atlanta, GA 30318"},"geometry":{"type":"Point","coordinates":[-84.42237,33.787211]}},{"type":"Feature","properties":{"name":"ebbf7ca5b390","address":"3521 Bryn Mawr Dr NE, Albuquerque, NM 87107"},"geometry":{"type":"Point","coordinates":[-106.610001,35.121952]}},{"type":"Feature","properties":{"name":"40a92cf89d8a","address":"5560 Trapp Ave, Burnaby, BC V3N 5G4"},"geometry":{"type":"Point","coordinates":[-122.972934,49.189664]}},{"type":"Feature","properties":{"name":"5001d7a66a06","address":"900A Don Mills Rd, North York, Toronto, ON M3C 1V6"},"geometry":{"type":"Point","coordinates":[-79.343516,43.726882]}},{"type":"Feature","properties":{"name":"e64b40ca201e","address":"2880 107 Ave SE, Unit 118, Calgary, AB T2Z 3R7"},"geometry":{"type":"Point","coordinates":[-113.994522,50.957645]}},{"type":"Feature","properties":{"name":"525ef438bd31","address":"192 Joseph Zatzman Drive, Suite 5, Dartmouth, NS B3B 1N4"},"geometry":{"type":"Point","coordinates":[-63.602347,44.714215]}},{"type":"Feature","properties":{"name":"32ddb3521a01","address":"79 Reedbuck Cres, Randjespark, Midrand, 1685"},"geometry":{"type":"Point","coordinates":[28.140895,-25.945118]}},{"type":"Feature","properties":{"name":"15b2720b559c","address":"Racecourse Rd, Milnerton Business Park, Phase 6, Milnerton, Cape Town, 7441"},"geometry":{"type":"Point","coordinates":[18.511071,-33.866508]}},{"type":"Feature","properties":{"name":"d2cb6ea76785","address":"1/706 Mowbray Rd W, Lane Cove North NSW 2066"},"geometry":{"type":"Point","coordinates":[151.148423,-33.803852]}},{"type":"Feature","properties":{"name":"636f46484fb7","address":"4/344 Lorimer St, Port Melbourne VIC 3207"},"geometry":{"type":"Point","coordinates":[144.909938,-37.823377]}},{"type":"Feature","properties":{"name":"e9e730355401","address":"Warner Roadshow Studios, Pacific Highway, Oxenford QLD 4210"},"geometry":{"type":"Point","coordinates":[153.312907,-27.910494]}},{"type":"Feature","properties":{"name":"efc20183fa01","address":"318 Richmond Road, Grey Lynn, Auckland 1021"},"geometry":{"type":"Point","coordinates":[174.731111,-36.855229]}},{"type":"Feature","properties":{"name":"747ce6730d6d","address":"Boulevard Auguste Reyers 52 1044 Schaerbeek"},"geometry":{"type":"Point","coordinates":[4.402849,50.851631]}},{"type":"Feature","properties":{"name":"11ce1dd61d47","address":"Rue Jules Destrée 52 6001 Charleroi"},"geometry":{"type":"Point","coordinates":[4.452299,50.396699]}},{"type":"Feature","properties":{"name":"e4376f879dff","address":"Capital Business Park, Unit J2, Cardiff CF3 2PX"},"geometry":{"type":"Point","coordinates":[-3.114168,51.501939]}},{"type":"Feature","properties":{"name":"9030d754802e","address":"Door 27, Warner Bros. Studios, Aerodrome Way, Watford WD25 7GN"},"geometry":{"type":"Point","coordinates":[-0.421483,51.692993]}},{"type":"Feature","properties":{"name":"7e30339410ef","address":"Loughside Industrial Park Unit 9, Belfast, BT3 9JA"},"geometry":{"type":"Point","coordinates":[-5.912494,54.626395]}},{"type":"Feature","properties":{"name":"eb598440f5df","address":"1B, Space Studios, Vaughan St, Manchester M12 5FQ"},"geometry":{"type":"Point","coordinates":[-2.197856,53.470341]}},{"type":"Feature","properties":{"name":"539a427722c0","address":"The Lodge Ardmore Studios, Herbert Rd, Killarney, Bray, Wicklow"},"geometry":{"type":"Point","coordinates":[-6.125276,53.19659]}},{"type":"Feature","properties":{"name":"2ea4d93e4523","address":"45 avenue Victor Hugo Bâtiment 217 93300 Aubervilliers"},"geometry":{"type":"Point","coordinates":[2.368033,48.904529]}},{"type":"Feature","properties":{"name":"6eeefd4179c2","address":"6735 Selma Ave, Los Angeles, CA 90028"},"geometry":{"type":"Point","coordinates":[-118.337214,34.100245]}},{"type":"Feature","properties":{"name":"cbee72f41425","address":"500 Sandy Creek Rd, Building 2004, Suite 103, Fayetteville, GA 30214"},"geometry":{"type":"Point","coordinates":[-84.514812,33.47409]}},{"type":"Feature","properties":{"name":"72dcf2a317c7","address":"6101 Variel Ave, Woodland Hills, CA 91367"},"geometry":{"type":"Point","coordinates":[-118.593152,34.181557]}},{"type":"Feature","properties":{"name":"faadecb5920d","address":"Carol St, Islington, London NW1 0HT"},"geometry":{"type":"Point","coordinates":[-0.12059,51.54035]}},{"type":"Feature","properties":{"name":"42f5ccf8bb1a","address":"3727 W Magnolia Blvd, Burbank, CA 91505"},"geometry":{"type":"Point","coordinates":[-118.347983,34.168004]}},{"type":"Feature","properties":{"name":"414629faa017","address":"8 rue de l'Hôpital Saint-Louis 75010 Paris"},"geometry":{"type":"Point","coordinates":[2.365513,48.875304]}},{"type":"Feature","properties":{"name":"39c017abd88a","address":"26 Clarke St, Norwood SA 5067"},"geometry":{"type":"Point","coordinates":[138.624878,-34.927122]}},{"type":"Feature","properties":{"name":"a02de10c8aa1","address":"3 boulevard Georges Méliès 94350 Villiers-sur-Marne"},"geometry":{"type":"Point","coordinates":[2.537377,48.836604]}},{"type":"Feature","properties":{"name":"21250a5a7e86","address":"2 Boulevard de la Libération, Bâtiment A2, 93200 Saint-Denis"},"geometry":{"type":"Point","coordinates":[2.338732,48.92747]}},{"type":"Feature","properties":{"name":"2935284ad2b0","address":"112-14 Samseong-dong, Gangnam-gu, Seoul"},"geometry":{"type":"Point","coordinates":[127.045101,37.509986]}},{"type":"Feature","properties":{"name":"bda06e428697","address":"17 rue de la Reine Blanche 75013 Paris"},"geometry":{"type":"Point","coordinates":[2.353991,48.836669]}},{"type":"Feature","properties":{"name":"37f57c3c895f","address":"2762 S La Cienega Blvd, Los Angeles, CA 90034"},"geometry":{"type":"Point","coordinates":[-118.374843,34.033026]}},{"type":"Feature","properties":{"name":"5f2cb2e4a929","address":"18, Porur Sundaram St, Darmapuram, T. Nagar, Chennai, Tamil Nadu 600017"},"geometry":{"type":"Point","coordinates":[80.235471,13.0527]}},{"type":"Feature","properties":{"name":"49f6e1831f1e","address":"Polstjärnegatan 14, 417 56 Göteborg"},"geometry":{"type":"Point","coordinates":[11.934004,57.708076]}},{"type":"Feature","properties":{"name":"8a095299785a","address":"554 W Main St Building B Suite 200, Buford, GA30518"},"geometry":{"type":"Point","coordinates":[-84.176355,34.118557]}},{"type":"Feature","properties":{"name":"d2a5b9811246","address":"Rayimbek Ave 486Б, Almaty"},"geometry":{"type":"Point","coordinates":[76.850265,43.250801]}},{"type":"Feature","properties":{"name":"1b85c63cc232","address":"Poleczki 29, 02-822 Warszawa"},"geometry":{"type":"Point","coordinates":[21.002823,52.1592]}},{"type":"Feature","properties":{"name":"cdaee893c163","address":"29 Sale Street, Auckland CBD, Auckland 1010"},"geometry":{"type":"Point","coordinates":[174.755148,-36.849324]}},{"type":"Feature","properties":{"name":"72efdc456e0f","address":"5/7 McCormack Place, Ngauranga, Wellington 6035"},"geometry":{"type":"Point","coordinates":[174.81219,-41.246265]}},{"type":"Feature","properties":{"name":"c13b3e21afe9","address":"Gorriti 5842, C1414 BKJ, Buenos Aires"},"geometry":{"type":"Point","coordinates":[-58.439807,-34.58305]}},{"type":"Feature","properties":{"name":"46c558e1ec3c","address":"39 rue Maurice Gunsbourg 94205 Ivry-sur-Seine"},"geometry":{"type":"Point","coordinates":[2.404106,48.811929]}},{"type":"Feature","properties":{"name":"55adf896499e","address":"Ecole Supérieure des Arts Visuels 40002 Marrakech"},"geometry":{"type":"Point","coordinates":[-8.004208,31.666493]}},{"type":"Feature","properties":{"name":"cdf30604e88e","address":"2230 Columbia St, San Diego, CA 92101"},"geometry":{"type":"Point","coordinates":[-117.169416,32.72805]}},{"type":"Feature","properties":{"name":"fbb7e2561e9c","address":"5-5 Kojimac, hi, Chiyoda-ku, 102-0083, Tokyo"},"geometry":{"type":"Point","coordinates":[139.733622,35.684408]}},{"type":"Feature","properties":{"name":"5844f22a575a","address":"5-3-1 Toyosaki, Kita-ku, Osaka 531-0072"},"geometry":{"type":"Point","coordinates":[135.499674,34.712883]}},{"type":"Feature","properties":{"name":"15a62355f254","address":"Rotherstraße 5, 10245 Berlin"},"geometry":{"type":"Point","coordinates":[13.45304,52.503415]}},{"type":"Feature","properties":{"name":"83ecb708d758","address":"Carrer de Joan d'Àustria, 116, 08018 Barcelona"},"geometry":{"type":"Point","coordinates":[2.188505,41.395697]}},{"type":"Feature","properties":{"name":"fea345d23f45","address":"130 rue de Belleville 75020 Paris"},"geometry":{"type":"Point","coordinates":[2.38882,48.874814]}},{"type":"Feature","properties":{"name":"6c662d53f00c","address":"Unit 10, Roslin Square, Roslin Rd, London W3 8DH"},"geometry":{"type":"Point","coordinates":[-0.27396,51.501035]}},{"type":"Feature","properties":{"name":"9faa9c930aa8","address":"3645 Grandview Hwy, Vancouver, BC V5M 2G7"},"geometry":{"type":"Point","coordinates":[-123.025238,49.258685]}},{"type":"Feature","properties":{"name":"8f2051081aa4","address":"1 Atlantic Ave, Suite110, Toronto, ON M6K 3E7"},"geometry":{"type":"Point","coordinates":[-79.419321,43.636538]}},{"type":"Feature","properties":{"name":"95544f89462b","address":"575 Fraser St, North Bay, ON P1B 3X3"},"geometry":{"type":"Point","coordinates":[-79.462595,46.313309]}},{"type":"Feature","properties":{"name":"0f491691c1ca","address":"42 rue Eugène Carrière 75018 Paris"},"geometry":{"type":"Point","coordinates":[2.333888,48.891337]}},{"type":"Feature","properties":{"name":"c0351e7eb743","address":"17 place Bellecour 69002 Lyon"},"geometry":{"type":"Point","coordinates":[4.834042,45.757294]}},{"type":"Feature","properties":{"name":"aabacc71134c","address":"282 rue des Pyrénées 75020 Paris"},"geometry":{"type":"Point","coordinates":[2.394004,48.870578]}},{"type":"Feature","properties":{"name":"9d8d8d2e0c4b","address":"Chatswood Business Park, 9U/175 Lower Gibbes St, Chatswood East NSW 2067"},"geometry":{"type":"Point","coordinates":[151.1973,-33.783876]}},{"type":"Feature","properties":{"name":"f6b8b385f335","address":"12023 Vose St Unit 23, North Hollywood, CA 91605"},"geometry":{"type":"Point","coordinates":[-118.394966,34.199681]}},{"type":"Feature","properties":{"name":"2322497639c8","address":"Ottakringer Str. 16, 1170 Wien"},"geometry":{"type":"Point","coordinates":[16.339604,48.215435]}},{"type":"Feature","properties":{"name":"052ef036e589","address":"Thorvald Meyers Gate 7, 0555 Oslo"},"geometry":{"type":"Point","coordinates":[10.758086,59.929683]}},{"type":"Feature","properties":{"name":"44d42c0789b7","address":"11318 Santa Monica Blvd, Los Angeles, CA 90025"},"geometry":{"type":"Point","coordinates":[-118.449041,34.046268]}},{"type":"Feature","properties":{"name":"1f0d3e1c8549","address":"95 Buckhurst St, South Melbourne VIC 3205"},"geometry":{"type":"Point","coordinates":[144.950106,-37.831215]}},{"type":"Feature","properties":{"name":"27f00ba7239a","address":"42 Maddox St, Alexandria NSW 2015"},"geometry":{"type":"Point","coordinates":[151.193285,-33.907394]}},{"type":"Feature","properties":{"name":"b5871201856d","address":"Seyrantepe Mahallesi, Narin Sk. No:3/A, 34418 Kâğıthane/İstanbul"},"geometry":{"type":"Point","coordinates":[28.983767,41.099747]}},{"type":"Feature","properties":{"name":"bc9f6591dbd8","address":"957 Cole Ave, Los Angeles, CA 90038"},"geometry":{"type":"Point","coordinates":[-118.330165,34.088804]}},{"type":"Feature","properties":{"name":"00b2fbb35b9c","address":"1st Floor, 28/56, Block 28, West Patel Nagar, Patel Nagar, Delhi, 110008"},"geometry":{"type":"Point","coordinates":[77.163843,28.65367]}},{"type":"Feature","properties":{"name":"971f99597810","address":"Westpoint, Unit 10, Trading Estate Rd, Alliance Rd, London W3 0RA"},"geometry":{"type":"Point","coordinates":[-0.275762,51.523618]}},{"type":"Feature","properties":{"name":"c4a191d9adbc","address":"599 11th Ave Ground Floor, New York, NY 10036"},"geometry":{"type":"Point","coordinates":[-73.997388,40.762744]}},{"type":"Feature","properties":{"name":"686261dfba0e","address":"38 bis rue Paul Vaillant Couturier 92240 Malakoff"},"geometry":{"type":"Point","coordinates":[2.29737,48.812951]}},{"type":"Feature","properties":{"name":"63393433dd31","address":"1323 N 1st St, Bellaire, TX 77401"},"geometry":{"type":"Point","coordinates":[-95.463601,29.723773]}},{"type":"Feature","properties":{"name":"a1e9574021c4","address":"118 Wentworth Ave, Banksmeadow NSW 2019"},"geometry":{"type":"Point","coordinates":[151.216925,-33.94251]}},{"type":"Feature","properties":{"name":"cf05450c078b","address":"195 Rouse St, Port Melbourne VIC 3207"},"geometry":{"type":"Point","coordinates":[144.938244,-37.841541]}},{"type":"Feature","properties":{"name":"c417118e00dc","address":"Rua do Freixo, 1071 A.3, 4300-219 Porto"},"geometry":{"type":"Point","coordinates":[-8.579914,41.145408]}},{"type":"Feature","properties":{"name":"3952ded9f0f3","address":"21151 S Western Ave Ste 100, Torrance, CA 90501"},"geometry":{"type":"Point","coordinates":[-118.309744,33.837179]}},{"type":"Feature","properties":{"name":"116c9fca2614","address":"7-11 rue de l'Industrie 92230 Gennevilliers"},"geometry":{"type":"Point","coordinates":[2.310369,48.931943]}},{"type":"Feature","properties":{"name":"f475b0c6572e","address":"1 Tampines North Dr. 1, #07-10, Singapour 528559"},"geometry":{"type":"Point","coordinates":[103.754096,1.343513]}},{"type":"Feature","properties":{"name":"922cc187402a","address":"7, Jalan Pertama 5, Pusat Perdagangan Danga Utama, 81300 Johor Bahru"},"geometry":{"type":"Point","coordinates":[103.680104,1.518429]}},{"type":"Feature","properties":{"name":"ddbdfdb78ade","address":"9 rue des Fillettes 93210 Saint-Denis"},"geometry":{"type":"Point","coordinates":[2.365565,48.909674]}},{"type":"Feature","properties":{"name":"209e1b2ec748","address":"5/10 rue des Terres Neuves 33130 Bègles"},"geometry":{"type":"Point","coordinates":[-0.552182,44.814054]}},{"type":"Feature","properties":{"name":"7e20f1e0d4e3","address":"79 rue Henri Fabre 34130 Maugio"},"geometry":{"type":"Point","coordinates":[2.342331,48.896622]}},{"type":"Feature","properties":{"name":"076b492fa16e","address":"37 rue Guibal 13003 Marseille"},"geometry":{"type":"Point","coordinates":[5.389752,43.309441]}},{"type":"Feature","properties":{"name":"67ebb3d874cc","address":"Boulevard Général Wahis 16EB 1030 Schaerbeek"},"geometry":{"type":"Point","coordinates":[4.399671,50.862832]}},{"type":"Feature","properties":{"name":"05ea09e8ad94","address":"Rue de Mulhouse 36 4020 Liège"},"geometry":{"type":"Point","coordinates":[5.585865,50.632757]}},{"type":"Feature","properties":{"name":"fe5f2de31505","address":"16 rue Cage 93400 Saint-Ouen"},"geometry":{"type":"Point","coordinates":[2.333794,48.917905]}},{"type":"Feature","properties":{"name":"aee76afd92c1","address":"Blücherstraße 28/29 10961 Berlin"},"geometry":{"type":"Point","coordinates":[13.402611,52.492073]}},{"type":"Feature","properties":{"name":"12d1d6bde8b7","address":"Kirchenstraße 89B 81675 München"},"geometry":{"type":"Point","coordinates":[11.60936,48.133387]}},{"type":"Feature","properties":{"name":"2ba9a46d04a3","address":"Nirim St 10, Tel Aviv-Yafo"},"geometry":{"type":"Point","coordinates":[34.791176,32.063258]}},{"type":"Feature","properties":{"name":"51d230dda67b","address":"113-121 avenue du Président Wilson 93210 La Plaine Saint-Denis"},"geometry":{"type":"Point","coordinates":[2.357951,48.907047]}},{"type":"Feature","properties":{"name":"cf3deb70448b","address":"1190 Avenue Van Volxem 1190 Bruxelles"},"geometry":{"type":"Point","coordinates":[4.325893,50.821554]}},{"type":"Feature","properties":{"name":"41eec85a1a2b","address":"Oberlandstraße 13-14 12099 Berlin"},"geometry":{"type":"Point","coordinates":[13.417032,52.465036]}},{"type":"Feature","properties":{"name":"1001d6c8de16","address":"Křížová 2601/2 150 00 Prague 5, Smíchov"},"geometry":{"type":"Point","coordinates":[14.407174,50.051147]}},{"type":"Feature","properties":{"name":"462cb86c4d65","address":"Altstraße 9 92637 Weiden"},"geometry":{"type":"Point","coordinates":[12.148268,49.673413]}},{"type":"Feature","properties":{"name":"8cb871bd3012","address":"757 West California Ave Building 4, Glendale, CA 91203"},"geometry":{"type":"Point","coordinates":[-118.272358,34.150348]}},{"type":"Feature","properties":{"name":"51b88d8de12a","address":"Gebäude 75 Kistlerhofstraße 70 81379 München"},"geometry":{"type":"Point","coordinates":[11.525789,48.096041]}},{"type":"Feature","properties":{"name":"9cad04bcb2c1","address":"74 boulevard de Reuilly 75012 Paris"},"geometry":{"type":"Point","coordinates":[2.398981,48.839546]}},{"type":"Feature","properties":{"name":"86a175d450ec","address":"Rue du Pré-Bouvier 8, 1242 Satigny"},"geometry":{"type":"Point","coordinates":[6.057223,46.224561]}},{"type":"Feature","properties":{"name":"bab7a4278d5b","address":"Bergstrasse 23, 8953 Dietikon"},"geometry":{"type":"Point","coordinates":[8.397997,47.403517]}},{"type":"Feature","properties":{"name":"64e25910f49d","address":"C. de Albasanz, 59, 28037 Madrid"},"geometry":{"type":"Point","coordinates":[-3.624024,40.438524]}},{"type":"Feature","properties":{"name":"f77af1981a06","address":"Av. Alcalde José Ramirez Bethencourt, 17, 35004 Las Palmas de Gran Canaria, Las Palmas"},"geometry":{"type":"Point","coordinates":[-15.42018,28.117109]}},{"type":"Feature","properties":{"name":"cabebded7e60","address":"Ermou 39, Elliniko 167 77"},"geometry":{"type":"Point","coordinates":[23.749431,37.899854]}},{"type":"Feature","properties":{"name":"157e66527218","address":"8363 Lougheed Hwy, Burnaby, BC V5A 1X3"},"geometry":{"type":"Point","coordinates":[-122.92212,49.254617]}},{"type":"Feature","properties":{"name":"4c4a7dbd938c","address":"800 Islington Ave, Etobicoke, ON M8Z 6A1"},"geometry":{"type":"Point","coordinates":[-79.511482,43.616288]}},{"type":"Feature","properties":{"name":"bb7a10ced936","address":"5750 76 Ave SE Unit 50, Calgary, AB T2C 5N5"},"geometry":{"type":"Point","coordinates":[-113.950269,50.98528]}},{"type":"Feature","properties":{"name":"a78aab695903","address":"315 Wilkinson Ave #1, Dartmouth, NS B3B"},"geometry":{"type":"Point","coordinates":[-63.575863,44.723127]}},{"type":"Feature","properties":{"name":"055a85b4f509","address":"2073 Logan Ave #11, Winnipeg, MB R2R 0J1"},"geometry":{"type":"Point","coordinates":[-97.21078,49.926972]}},{"type":"Feature","properties":{"name":"00a31681a427","address":"922 Cambrian Heights Dr Unit 2, Sudbury, ON P3C 5M6"},"geometry":{"type":"Point","coordinates":[-80.987133,46.513657]}},{"type":"Feature","properties":{"name":"7c41b79053df","address":"Paseo de Los Parques 4372, Universitaria, 45110 Zapopan, Jal."},"geometry":{"type":"Point","coordinates":[-103.414798,20.694117]}},{"type":"Feature","properties":{"name":"353dc326067a","address":"Carrer d'Àlaba, 51, Bajos 3ª, 08005 Barcelona"},"geometry":{"type":"Point","coordinates":[2.194658,41.395714]}}]}