{"type": "FeatureCollection", "features": [{"type": "Feature", "geometry": {"type": "Point", "coordinates": [-118.444745, 33.990765]}, "properties": {"id": "rth_c6114df8-3aa7-42d8-9ebb-e1d33c0663f6", "address": "13428 Beach Ave, Marina Del Rey, CA 90292", "url": "https://www.2020camera.com", "name": "2020 Camera"}}, {"type": "Feature", "geometry": {"type": "Point", "coordinates": [-79.598884, 43.588256]}, "properties": {"id": "rth_484e204d-07aa-45f2-ae12-b8c8a5a4eb90", "address": "2440 Tedlo St, Mississauga, ON L5A 3V3", "url": "https://www.2dhouse.com", "name": "2D House"}}, {"type": "Feature", "geometry": {"type": "Point", "coordinates": [2.412785, 48.888618]}, "properties": {"id": "rth_8c847b7a-4949-44ad-b67f-47aa900eddc9", "address": "3 rue Meissonnier 93500 Pantin", "url": "http://www.a2c-location.fr", "name": "A2C Location"}}, {"type": "Feature", "geometry": {"type": "Point", "coordinates": [-118.312952, 34.16523]}, "properties": {"id": "rth_10595383-14b3-4cd8-a40c-0d81d27ae08c", "address": "801 S Main St, Burbank, CA 91506", "url": "http://www.abelcine.com", "name": "AbelCine"}}, {"type": "Feature", "geometry": {"type": "Point", "coordinates": [-74.006785, 40.656432]}, "properties": {"id": "rth_bd6c9b24-66ff-45b6-9c63-131a1e77a3db", "address": "88 35th St 4th Floor, Brooklyn, NY 11232", "url": "http://www.abelcine.com", "name": "AbelCine"}}, {"type": "Feature", "geometry": {"type": "Point", "coordinates": [-87.691056, 41.859397]}, "properties": {"id": "rth_7f15705b-7fbf-47bb-adc3-e1723f932cff", "address": "2602 W 16th St 4th floor, Chicago, IL 60608", "url": "http://www.abelcine.com", "name": "AbelCine"}}, {"type": "Feature", "geometry": {"type": "Point", "coordinates": [2.156593, 41.384402]}, "properties": {"id": "rth_1c896fc6-ff05-45c3-b0c7-9cd57e31628d", "address": "Carrer del Consell de Cent, 201, 08011 Barcelona", "url": "http://www.aclamcamerastudiosrental.com", "name": "Aclam Camera & Studios Rental"}}, {"type": "Feature", "geometry": {"type": "Point", "coordinates": [55.222494, 25.140378]}, "properties": {"id": "rth_1579a8e0-ef87-4489-a845-fd33549a4b7c", "address": "P.O. Box 111046, Dubai", "url": "http://actionfilmz.com/equipment-rental/", "name": "Action Filmz"}}, {"type": "Feature", "geometry": {"type": "Point", "coordinates": [-118.323093, 34.083905]}, "properties": {"id": "rth_d8d3938d-8c41-48c4-ac26-ba752b92a1e6", "address": "5625 Melrose Ave, Hollywood, CA 90038", "url": "http://www.alangordon.com", "name": "Alan Gordon Enterprises"}}, {"type": "Feature", "geometry": {"type": "Point", "coordinates": [25.0471, 60.20174]}, "properties": {"id": "rth_6d22447e-8ac1-4ea7-a160-85db705ea627", "address": "Sahaajankatu 28, 00880 Helsinki", "url": "https://www.angelfilms.com", "name": "Angel Films"}}, {"type": "Feature", "geometry": {"type": "Point", "coordinates": [24.73457, 59.42405]}, "properties": {"id": "rth_1425bac9-f055-45f9-9cf0-2f0e4be73262", "address": "Videviku 29, 10131 Tallinn", "url": "https://www.angelfilms.com", "name": "Angel Films"}}, {"type": "Feature", "geometry": {"type": "Point", "coordinates": [-118.351466, 34.192218]}, "properties": {"id": "rth_5d24c918-d5ae-4c24-b0a1-4a8d7d79c1e0", "address": "3700 Vanowen St, Burbank, CA 91505", "url": "http://www.arrirental.com", "name": "ARRI Rental"}}, {"type": "Feature", "geometry": {"type": "Point", "coordinates": [-74.069875, 40.784272]}, "properties": {"id": "rth_e520bf15-91d4-4bc6-b4af-f86ac5948c5a", "address": "25 Enterprise Ave N, Secaucus, NJ 07094", "url": "http://www.arrirental.com", "name": "ARRI Rental"}}, {"type": "Feature", "geometry": {"type": "Point", "coordinates": [6.139879, 49.588714]}, "properties": {"id": "rth_64faa0d2-98e6-44f2-8a18-5ce4723b0337", "address": "20 Rangwee 2412 Luxembourg", "url": "http://www.arrirental.com", "name": "ARRI Rental"}}, {"type": "Feature", "geometry": {"type": "Point", "coordinates": [-122.977468, 49.263368]}, "properties": {"id": "rth_b6aa089d-098d-436c-8434-82cc7fc1899c", "address": "6150 Lougheed Highway, Unit C, Burnaby, BC V5B 2Z9", "url": "http://www.arrirental.com", "name": "ARRI Rental"}}, {"type": "Feature", "geometry": {"type": "Point", "coordinates": [-0.486388, 51.547778]}, "properties": {"id": "rth_241b47c9-71b0-468a-92ce-e05ed63bc28e", "address": "3 Highbridge, Oxford Road, Uxbridge, UB8 1LX", "url": "http://www.arrirental.com", "name": "ARRI Rental"}}, {"type": "Feature", "geometry": {"type": "Point", "coordinates": [-3.101991, 51.50683]}, "properties": {"id": "rth_40244064-890e-45b8-8fc9-92df2c3ca1c9", "address": "Room E105, Pinewood Studio Wales Wentloog Environmental Centre, Wentloog Avenue, Cardiff, CF3 2GH", "url": "http://www.arrirental.com", "name": "ARRI Rental"}}, {"type": "Feature", "geometry": {"type": "Point", "coordinates": [16.33017, 48.169473]}, "properties": {"id": "rth_8e2996ec-6802-4f5a-9375-789f3d640f65", "address": "Pottendorfer Str. 23-25, 1120 Wien", "url": "http://www.arrirental.com", "name": "ARRI Rental"}}, {"type": "Feature", "geometry": {"type": "Point", "coordinates": [14.277865, 50.058303]}, "properties": {"id": "rth_9b24c3da-b325-4727-ae24-62a5727b2ea3", "address": "Na Radosti 420, Building 5 15521 Prague 5, Zlic\u00edn", "url": "http://www.arrirental.com", "name": "ARRI Rental"}}, {"type": "Feature", "geometry": {"type": "Point", "coordinates": [19.138663, 47.581468]}, "properties": {"id": "rth_70f54008-4c68-4d60-b8c6-5485ba04d19a", "address": "Magyarorsz\u00e1gi Fi\u00f3ktelepe, Fels\u0151kert utca. 6, 1151 Budapest", "url": "http://www.arrirental.com", "name": "ARRI Rental"}}, {"type": "Feature", "geometry": {"type": "Point", "coordinates": [13.308266, 52.530252]}, "properties": {"id": "rth_d70831ac-a8ed-442c-86f2-81032b553b8b", "address": "Gau\u00dfstra\u00dfe 17 10589 Berlin", "url": "http://www.arrirental.com", "name": "ARRI Rental"}}, {"type": "Feature", "geometry": {"type": "Point", "coordinates": [11.661166, 48.21162]}, "properties": {"id": "rth_68ffa5a0-79ca-41ab-b971-556e87c84198", "address": "M\u00fcnchener Str. 101 85737 Ismaning", "url": "http://www.arrirental.com", "name": "ARRI Rental"}}, {"type": "Feature", "geometry": {"type": "Point", "coordinates": [12.383682, 51.317978]}, "properties": {"id": "rth_122f3c4b-c103-4e3e-9d39-2c921cb869da", "address": "Altenburger Str. 11 04275 Leipzig", "url": "http://www.arrirental.com", "name": "ARRI Rental"}}, {"type": "Feature", "geometry": {"type": "Point", "coordinates": [6.924948, 50.976547]}, "properties": {"id": "rth_e4b18aad-45b6-43fc-be97-c65b09e3f70b", "address": "Heinrich-Pesch-Stra\u00dfe 7 50739 K\u00f6ln", "url": "http://www.arrirental.com", "name": "ARRI Rental"}}, {"type": "Feature", "geometry": {"type": "Point", "coordinates": [-73.950377, 40.730597]}, "properties": {"id": "rth_a31631b9-865b-4e37-9352-5eef0dfb4897", "address": "236 Greenpoint Ave, Brooklyn, NY 11222", "url": "http://www.arrirental.com", "name": "ARRI Rental Brooklyn Haus"}}, {"type": "Feature", "geometry": {"type": "Point", "coordinates": [101.597863, 3.165234]}, "properties": {"id": "rth_dbbd7fdd-f139-42a9-8368-640fa6bf46c3", "address": "29, Jalan PJU 3/47, Sunway Damansara, 47810 Petaling Jaya, Selangor", "url": "http://www.asiafilmequipment.com", "name": "Asia Film Equipment"}}, {"type": "Feature", "geometry": {"type": "Point", "coordinates": [-99.171434, 19.376382]}, "properties": {"id": "rth_4f9b8add-2705-4fea-bb03-ff7aea0b5626", "address": "Miguel Laurent 211, Col del Valle, 03100 Ciudad de M\u00e9xico, CDMX", "url": "http://www.auralensrental.com", "name": "Aura Lens Rental"}}, {"type": "Feature", "geometry": {"type": "Point", "coordinates": [16.300197, 48.140595]}, "properties": {"id": "rth_3436f2d9-31de-483e-8116-9807407b25f8", "address": "Brunner Strasse 63/23, Halle 4N, 1230 Wien", "url": "http://www.avpro.at/de/dcr", "name": "AV-Professional"}}, {"type": "Feature", "geometry": {"type": "Point", "coordinates": [2.404031, 48.81189]}, "properties": {"id": "rth_1f83ee9e-7879-481d-9a6e-180751019f69", "address": "39 Rue Maurice Gunsbourg 94200 Ivry-sur-Seine", "url": "http://www.be4post.com", "name": "Be4Post"}}, {"type": "Feature", "geometry": {"type": "Point", "coordinates": [4.400205, 50.864274]}, "properties": {"id": "rth_6393dfc4-9af9-4f7b-9446-a47325a5576b", "address": "Rue Auguste De Boeck 68B, 1140 Evere", "url": "https://www.bfcrental.com", "name": "BFC Rental"}}, {"type": "Feature", "geometry": {"type": "Point", "coordinates": [-118.244199, 34.115383]}, "properties": {"id": "rth_0c91643d-70a1-4f0b-8439-1186fa803889", "address": "3039 Roswell St, Los Angeles, CA 90065", "url": "http://www.birnsandsawyer.com", "name": "Birns & Sawyer"}}, {"type": "Feature", "geometry": {"type": "Point", "coordinates": [-95.586122, 29.863762]}, "properties": {"id": "rth_764041c3-4bc1-4255-b38b-9600114248bf", "address": "11875 W Little York Rd Suite 1101, Houston, TX 77041", "url": "http://www.blueribbondm.com", "name": "Blue Ribbon Digital Media"}}, {"type": "Feature", "geometry": {"type": "Point", "coordinates": [-118.338953, 34.025741]}, "properties": {"id": "rth_5f34fd1c-9db6-4e2e-a971-4f65aed218db", "address": "3921 W Jefferson Blvd, Los Angeles, CA 90016", "url": "http://www.bokehrentals.com", "name": "Bokeh Rentals"}}, {"type": "Feature", "geometry": {"type": "Point", "coordinates": [-118.404674, 33.984057]}, "properties": {"id": "rth_0a70eea3-04fc-4587-8aa8-eca4dabb76c8", "address": "6700 S Centinela Ave, 2nd Floor, Culver City, CA 90230", "url": "https://www.brainboxcameras.com", "name": "Brain Box Cameras"}}, {"type": "Feature", "geometry": {"type": "Point", "coordinates": [-85.703941, 42.937011]}, "properties": {"id": "rth_59d408c6-b012-4200-a251-42f3a6bcd46e", "address": "1500 Whiting St SW, Wyoming, MI 49509", "url": "http://www.braincellcamera.com", "name": "Braincell Camera"}}, {"type": "Feature", "geometry": {"type": "Point", "coordinates": [-123.079153, 49.271844]}, "properties": {"id": "rth_b27e9b82-c393-4e51-ab4e-adac826e0ac4", "address": "1193 Grant St, Vancouver, BC V6A 2J7", "url": "https://www.brightsidecinema.com", "name": "Bright Side Cinema"}}, {"type": "Feature", "geometry": {"type": "Point", "coordinates": [2.397506, 48.902999]}, "properties": {"id": "rth_2a0a0c76-ad52-4d7b-b5e2-9a3959ad6527", "address": "29 rue Cartier Bresson 93500 Pantin", "url": "http://www.buffaloc.fr", "name": "Buffaloc"}}, {"type": "Feature", "geometry": {"type": "Point", "coordinates": [-99.165736, 19.418622]}, "properties": {"id": "rth_6e2f33e2-7ac5-4fc6-afc9-094f51dadbc2", "address": "Roma, Colima 300, Roma Nte., Cuauht\u00e9moc, 06700 Ciudad de M\u00e9xico, CDMX", "url": "https://www.cactusfilm-mexico.com/rentals/catalogue/cameras", "name": "Cactus Film & Video"}}, {"type": "Feature", "geometry": {"type": "Point", "coordinates": [4.932784, 52.336862]}, "properties": {"id": "rth_f16eb7ba-0e06-4732-b60a-0e17c2e016d4", "address": "H.J.E. Wenckebachweg 135, 1096 AM Amsterdam", "url": "http://www.camunit.nl", "name": "Cam Unit"}}, {"type": "Feature", "geometry": {"type": "Point", "coordinates": [-3.645347, 40.535799]}, "properties": {"id": "rth_12a01c83-4019-411a-bdba-4e2dbc84bb33", "address": "Calle de Sta. Isabel, 13, 28108 Alcobendas, Madrid", "url": "http://www.camaleonrental.com", "name": "Camale\u00f3n Rental"}}, {"type": "Feature", "geometry": {"type": "Point", "coordinates": [4.932647, 52.337959]}, "properties": {"id": "rth_20598fbf-ca0e-4f0f-94b7-89b7bea5057f", "address": "Duivendrechtsekade 65, 1096 AH Amsterdam", "url": "http://www.camalot.nl", "name": "Camalot"}}, {"type": "Feature", "geometry": {"type": "Point", "coordinates": [4.448897, 50.923393]}, "properties": {"id": "rth_3b6ff294-99e3-4d55-b473-00b09b9255f6", "address": "Leuvensesteenweg 248 Fb, 1800 Vilvoorde", "url": "http://www.camalot.be", "name": "Camalot"}}, {"type": "Feature", "geometry": {"type": "Point", "coordinates": [13.364501, 52.478033]}, "properties": {"id": "rth_11ff69ed-924f-42b5-93ea-c15279b36318", "address": "Wilhelm-Kabus-Stra\u00dfe 77, 10829 Berlin", "url": "http://www.camelot-berlin.de", "name": "Camelot"}}, {"type": "Feature", "geometry": {"type": "Point", "coordinates": [151.262519, -33.766]}, "properties": {"id": "rth_de6f8627-65ba-4f16-b896-819902249f98", "address": "8/111 Old Pittwater Road, Brookvale NSW 2100", "url": "http://www.camerahire.com.au", "name": "Camera Hire"}}, {"type": "Feature", "geometry": {"type": "Point", "coordinates": [151.199895, -33.904043]}, "properties": {"id": "rth_75064db4-04ec-4189-b3f3-bea98aef3ea2", "address": "Workit Spaces, B1/13-21 Mandible St, Alexandria NSW 2015", "url": "http://www.camerahire.com.au", "name": "Camera Hire Alexandria"}}, {"type": "Feature", "geometry": {"type": "Point", "coordinates": [-95.357259, 29.768595]}, "properties": {"id": "rth_9c640b48-7321-4b02-a563-4e21a6039383", "address": "1113 Vine St Houston, TX 77002", "url": "http://www.camerahtx.com", "name": "Camera HTX"}}, {"type": "Feature", "geometry": {"type": "Point", "coordinates": [-3.522128, 40.336303]}, "properties": {"id": "rth_13059ce8-c174-4b83-9938-e6dc9a30bb57", "address": "Calle Severo Ochoa, 15, Nave 5, 28521 Rivas-Vaciamadrid, Madrid", "url": "http://www.cameralensesrental.com", "name": "Camera Lenses Rental"}}, {"type": "Feature", "geometry": {"type": "Point", "coordinates": [2.255442, 41.464778]}, "properties": {"id": "rth_76692fc6-67c2-4e12-b7b3-0661500b3b71", "address": "Torrent de Vallmajor, 94C, Nave 4 Badalona, 08915 Barcelona", "url": "http://www.cameralensesrental.com", "name": "Camera Lenses Rental"}}, {"type": "Feature", "geometry": {"type": "Point", "coordinates": [10.759063, 59.933542]}, "properties": {"id": "rth_b40a7a38-c1a9-4d19-a605-d0c308aaf334", "address": "Marcus Thranes Gate 4C, 0473 Oslo", "url": "https://www.cameranordic.com", "name": "Camera Nordic"}}, {"type": "Feature", "geometry": {"type": "Point", "coordinates": [18.051485, 59.33766]}, "properties": {"id": "rth_deaa7141-8b0f-4323-ad0f-ab4122806a49", "address": "V\u00e4stmannagatan 17, 113 25 Stockholm", "url": "https://www.cameranordic.com", "name": "Camera Nordic"}}, {"type": "Feature", "geometry": {"type": "Point", "coordinates": [18.040587, 59.347335]}, "properties": {"id": "rth_a7e42e6f-2519-4d58-a60a-666b6e7e0927", "address": "Sankt Eriksgatan 128, 113 43 Stockholm", "url": "https://www.camerarental.se", "name": "Camera Rental"}}, {"type": "Feature", "geometry": {"type": "Point", "coordinates": [9.201968, 45.505201]}, "properties": {"id": "rth_2147eed5-108e-471a-9443-da91650c47d4", "address": "Via Vincenzo Rabolini, 4, 20125 Milano MI", "url": "http://www.cameraservicerental.it", "name": "Camera Rental Service"}}, {"type": "Feature", "geometry": {"type": "Point", "coordinates": [12.497595, 41.853021]}, "properties": {"id": "rth_6607a42b-7a6c-4671-b3c3-9022e3048db6", "address": "Viale Tor Marancia, 68, 00147 Roma RM", "url": "http://www.cameraservicerental.it", "name": "Camera Rental Service"}}, {"type": "Feature", "geometry": {"type": "Point", "coordinates": [4.932151, 52.337589]}, "properties": {"id": "rth_8c3aeba1-0808-4395-b8a4-2f62f8f26ead", "address": "Duivendrechtsekade 72, 1096 AH Amsterdam", "url": "http://www.camerarentals.nl", "name": "Camera Rentals"}}, {"type": "Feature", "geometry": {"type": "Point", "coordinates": [-0.078065, 51.524828]}, "properties": {"id": "rth_7b50a891-f052-48d2-a652-590ba1f82666", "address": "14 Anning St, Hackney, London EC2A 3HB", "url": "http://www.cameraworks.co.uk", "name": "Cameraworks"}}, {"type": "Feature", "geometry": {"type": "Point", "coordinates": [-118.352973, 34.166262]}, "properties": {"id": "rth_3a01358b-1b1c-40d3-a725-a5834a09bc59", "address": "4221 W Magnolia Blvd, Burbank, CA 91505", "url": "http://www.camtec.tv", "name": "Camtec"}}, {"type": "Feature", "geometry": {"type": "Point", "coordinates": [-84.194462, 33.913756]}, "properties": {"id": "rth_da36e721-4e6b-4b7c-a147-13ffd5437b4e", "address": "1600 Oakbrook Dr #520, Norcross, GA 30093", "url": "http://www.camtec.tv", "name": "Camtec"}}, {"type": "Feature", "geometry": {"type": "Point", "coordinates": [4.295045, 51.486981]}, "properties": {"id": "rth_89254ef3-0a33-401b-ad17-174f5799258d", "address": "Van Aldegondebaan 7, 4615 AZ Bergen op Zoom", "url": "http://www.camuse.nl", "name": "Camuse"}}, {"type": "Feature", "geometry": {"type": "Point", "coordinates": [-77.167221, 38.797899]}, "properties": {"id": "rth_9976cb41-ee44-4172-9f07-01b76993769a", "address": "5706-F General Washington Dr. Alexandria, VA 22312", "url": "http://www.capcamrentals.com", "name": "Capital Camera"}}, {"type": "Feature", "geometry": {"type": "Point", "coordinates": [-57.55688, -25.289613]}, "properties": {"id": "rth_2953410e-a6b8-4644-b99a-7a75527e0c90", "address": "Bruselas 2865, Asunci\u00f3n", "url": "http://www.chacorental.com", "name": "Chaco Rental"}}, {"type": "Feature", "geometry": {"type": "Point", "coordinates": [-76.680477, 39.258078]}, "properties": {"id": "rth_8e258a1c-d15f-4607-b285-54cb7661a887", "address": "202 Azar Ct, Baltimore, MD 21227", "url": "http://www.charmcine.com", "name": "CharmCine"}}, {"type": "Feature", "geometry": {"type": "Point", "coordinates": [-122.298005, 37.878883]}, "properties": {"id": "rth_257676e9-827f-461c-8f15-28b4b79b6234", "address": "1336 Ninth St, Berkeley, CA 94710", "url": "http://www.chatercamera.com", "name": "Chater Camera"}}, {"type": "Feature", "geometry": {"type": "Point", "coordinates": [-46.740218, -23.527171]}, "properties": {"id": "rth_486e13f4-a65a-4368-9545-88e2be0b0916", "address": "Rua Senador Joaquim Ribeiro do Valle, 340, Galp\u00e3o 3A - Vila Leopoldina, S\u00e3o Paulo - SP, 05311-010", "url": "http://www.cinecam.com.br", "name": "Cinecam"}}, {"type": "Feature", "geometry": {"type": "Point", "coordinates": [2.352063, 48.824689]}, "properties": {"id": "rth_471e90a1-f2f3-4bb1-a9a4-b7920456fb52", "address": "11 bis rue Charles Fourier 75013 Paris", "url": "http://www.cineka.fr", "name": "Cineka"}}, {"type": "Feature", "geometry": {"type": "Point", "coordinates": [2.386371, 48.859942]}, "properties": {"id": "rth_a42c340d-179f-4309-b58d-8e77a81668f7", "address": "Unknow", "url": "https://www.cine-loc.com", "name": "Cineloc"}}, {"type": "Feature", "geometry": {"type": "Point", "coordinates": [3.869342, 43.602913]}, "properties": {"id": "rth_8295aef2-913a-4db9-9bab-0d840301405e", "address": "16 rue Bourrely 34000 Montpellier", "url": "https://www.cinelocmontpellier.com", "name": "Cineloc Montpellier"}}, {"type": "Feature", "geometry": {"type": "Point", "coordinates": [-118.347472, 34.025352]}, "properties": {"id": "rth_603386d5-c761-4395-a1f8-b87c9c1406e6", "address": "4700 W Jefferson Blvd, Ste 102, Los Angeles, CA 90016", "url": "http://www.cinemacamerarentals.com", "name": "Cinema Camera Rentals"}}, {"type": "Feature", "geometry": {"type": "Point", "coordinates": [12.241948, 45.464348]}, "properties": {"id": "rth_2cb90402-cd22-4ae0-8941-e199d101579e", "address": "Via dell' Azoto, 4, 30175 Venezia VE", "url": "http://www.cinemarental.it", "name": "Cinema Rental"}}, {"type": "Feature", "geometry": {"type": "Point", "coordinates": [-74.115965, 4.663154]}, "properties": {"id": "rth_0d0df30f-99e8-4f5e-98d7-2f58fdf5db99", "address": "Cra. 72a No. 24-72, Bogot\u00e1", "url": "https://cinemastore.com.co", "name": "Cinema Store"}}, {"type": "Feature", "geometry": {"type": "Point", "coordinates": [-93.358381, 44.987905]}, "properties": {"id": "rth_8cea7ff8-3368-444d-b0d3-c0344a6bc099", "address": "6158 Olson Memorial Hwy, Golden Valley, MN 55422", "url": "https://www.cinemechanics.net", "name": "CineMechanics"}}, {"type": "Feature", "geometry": {"type": "Point", "coordinates": [116.657976, 40.172038]}, "properties": {"id": "rth_5b84e217-1b0e-4083-b55b-0af7d876498b", "address": "#62 b\u00e1im\u01ce l\u00f9, Mapo Town, Shunyi District", "url": "https://www.cinerent.net/", "name": "Cinemotion"}}, {"type": "Feature", "geometry": {"type": "Point", "coordinates": [7.406475, 51.507698]}, "properties": {"id": "rth_ba230aa4-e94a-428d-9b7c-1414e3ba62b2", "address": "Iggelhorst 17, 44149 Dortmund", "url": "http://www.cineone.tv", "name": "CineOne"}}, {"type": "Feature", "geometry": {"type": "Point", "coordinates": [24.807114, 59.425535]}, "properties": {"id": "rth_3483aed3-a08f-4d91-a30a-02c5902d179b", "address": "Peterburi tee 34/4, 13520 Tallinn", "url": "http://www.cinerama.ee", "name": "Cinerama"}}, {"type": "Feature", "geometry": {"type": "Point", "coordinates": [114.177553, 22.327979]}, "properties": {"id": "rth_b852e569-a8cd-4ce3-8f88-c9cd62557f68", "address": "7 Cumberland Rd, Kowloon Tong", "url": "https://www.cinerent.net/", "name": "Cinerent"}}, {"type": "Feature", "geometry": {"type": "Point", "coordinates": [116.36157, 40.062102]}, "properties": {"id": "rth_fc6fbbe2-e5d3-4efa-81ad-68589f07323f", "address": "Xi San Qi, Hai Dian Qu,Beijing, China Beijing", "url": "https://www.cinerent.net/", "name": "Cinerent"}}, {"type": "Feature", "geometry": {"type": "Point", "coordinates": [113.340867, 23.070058]}, "properties": {"id": "rth_e0e6eafb-2aaf-4ee8-bf44-cbcc479079f6", "address": "No. 5 Hua Tai Road, Hua Zhou Street, Hai Zhu District, Guangzhou", "url": "https://www.cinerent.net/", "name": "Cinerent"}}, {"type": "Feature", "geometry": {"type": "Point", "coordinates": [121.410397, 31.109432]}, "properties": {"id": "rth_326a9d5d-fee8-4e98-b570-844582c01027", "address": "Unit 8, No.2328 Chunshen Road, Minhang District, Shanghai", "url": "https://www.cinerent.net/", "name": "Cinerent"}}, {"type": "Feature", "geometry": {"type": "Point", "coordinates": [121.059695, 14.575126]}, "properties": {"id": "rth_f59eaade-569d-42b5-b346-a511515db994", "address": "4 2nd St, Pasig, Metro Manila", "url": "https://www.cinerent.net/", "name": "Cinerent"}}, {"type": "Feature", "geometry": {"type": "Point", "coordinates": [100.595335, 13.717356]}, "properties": {"id": "rth_dfef4323-f704-4ddb-b2bb-8960a9caca9e", "address": "165 Sukhumvit 71 Road,  Prakanong Nua, Wattana,  Bangkok 10110", "url": "http://www.cinerentthailand.com/", "name": "Cinerent"}}, {"type": "Feature", "geometry": {"type": "Point", "coordinates": [101.6169, 3.200502]}, "properties": {"id": "rth_a53a2f1f-c189-4438-b119-babf031e42b5", "address": "17, Jalan Tembaga SD 5/2, Bandar Sri Damansara, 52200 Kuala Lumpur, Selangor", "url": "https://www.cinerent.net/", "name": "Cinerent"}}, {"type": "Feature", "geometry": {"type": "Point", "coordinates": [7.312576, 48.336328]}, "properties": {"id": "rth_a66cc16c-b036-4325-89c1-8d9a6a995035", "address": "6 rue de Vill\u00e9 67220 Neuve-Eglise", "url": "https://www.cinexo.fr", "name": "Cinexo"}}, {"type": "Feature", "geometry": {"type": "Point", "coordinates": [-81.662792, 41.515343]}, "properties": {"id": "rth_9d9786e0-9f3e-4c4d-9fe7-447efa525aa8", "address": "1419 E 40th St, Cleveland, OH 44103", "url": "http://www.clevelandcamerarental.com", "name": "Cleveland Camera Rental"}}, {"type": "Feature", "geometry": {"type": "Point", "coordinates": [-70.697338, -33.369259]}, "properties": {"id": "rth_e5a8b1de-cda4-42aa-bb4f-e634e325cf74", "address": "Av. Pdte. Eduardo Frei Montalva 6001, Conchal\u00ed", "url": "https://www.congofilms.tv", "name": "Congo Films"}}, {"type": "Feature", "geometry": {"type": "Point", "coordinates": [-74.076554, 4.683467]}, "properties": {"id": "rth_cf58a057-fa79-492e-a775-a2ba36b1a33c", "address": "Cra. 65 #81-58, Bogot\u00e1", "url": "https://www.congofilms.tv", "name": "Congo Films"}}, {"type": "Feature", "geometry": {"type": "Point", "coordinates": [-118.36077, 34.174725]}, "properties": {"id": "rth_c7db13be-98e9-4c41-a33f-ff853cf80499", "address": "5723 Auckland Ave, North Hollywood, CA 91601", "url": "https://www.contrastcamera.shop", "name": "Contrast Camera"}}, {"type": "Feature", "geometry": {"type": "Point", "coordinates": [2.337563, 48.891004]}, "properties": {"id": "rth_20dfe179-95e6-4707-a6b0-dd08d1182d30", "address": "7-9 rue des Cottages 75018 Paris", "url": "http://www.cosmikvideo.net", "name": "Cosmik Vid\u00e9o"}}, {"type": "Feature", "geometry": {"type": "Point", "coordinates": [-118.258013, 34.121054]}, "properties": {"id": "rth_6bbd586c-f900-40ce-b4c5-39ce58f9a8f3", "address": "3603 Seneca Ave #3, Los Angeles, CA 90039", "url": "http://www.cslarentals.com/rental/", "name": "CSLA Rentals"}}, {"type": "Feature", "geometry": {"type": "Point", "coordinates": [11.99339, 57.74555]}, "properties": {"id": "rth_a7bf70c2-ec48-4583-b5d4-81dedc63e0dc", "address": "Exportgatan 38D, 422 46 Hisings Backa", "url": "https://www.dagsljus.com", "name": "Dagsljus"}}, {"type": "Feature", "geometry": {"type": "Point", "coordinates": [18.05361, 59.25973]}, "properties": {"id": "rth_13e78866-8496-4101-9313-43231f1b281d", "address": "Harpsundsv\u00e4gen 199-201, 124 59 Bandhagen", "url": "https://www.dagsljus.com", "name": "Dagsljus"}}, {"type": "Feature", "geometry": {"type": "Point", "coordinates": [21.7163, 65.83795]}, "properties": {"id": "rth_0f02eed8-4a6f-4ab5-8b35-cdfa1bae20ad", "address": "Mor\u00e5sv\u00e4gen 5, 961 67 Boden", "url": "https://www.dagsljus.com", "name": "Dagsljus"}}, {"type": "Feature", "geometry": {"type": "Point", "coordinates": [13.360058, 52.504357]}, "properties": {"id": "rth_c8e1ef79-6cdd-4072-859e-07dc99863669", "address": "L\u00fctzowstra\u00dfe 33, 10785 Berlin", "url": "https://www.delight-rent.com", "name": "Delight Rental Services"}}, {"type": "Feature", "geometry": {"type": "Point", "coordinates": [16.356581, 48.194551]}, "properties": {"id": "rth_2e8cc597-875a-4a22-ad7d-c3a6c13c9c10", "address": "R\u00fcdigergasse 16, 1050 Wien", "url": "http://www.kameraverleih.at", "name": "DigiRental"}}, {"type": "Feature", "geometry": {"type": "Point", "coordinates": [-123.339273, 48.429977]}, "properties": {"id": "rth_fc1bac7b-9204-4b14-be0a-a66dd1c534c3", "address": "Vining Street, 1900 Belmont Ave, Victoria, BC V8R 3Z4", "url": "http://www.digitalcinemarentals.com", "name": "Digital Cinema Rentals"}}, {"type": "Feature", "geometry": {"type": "Point", "coordinates": [2.367685, 48.895513]}, "properties": {"id": "rth_bed59083-73b6-4dfb-944a-b4fa14e59d53", "address": "189 Rue d'Aubervilliers CAP 18 - Unit A53/55 75018 Paris", "url": "http://www.direct-digital.com", "name": "Direct Digital"}}, {"type": "Feature", "geometry": {"type": "Point", "coordinates": [-0.114947, 51.497515]}, "properties": {"id": "rth_686c3def-dbbd-4edf-a355-524ccb23d60d", "address": "200-202 Hercules Road, Waterloo, London SE1 7LD", "url": "http://www.direct-digital.com", "name": "Direct Digital"}}, {"type": "Feature", "geometry": {"type": "Point", "coordinates": [-2.197976, 53.470294]}, "properties": {"id": "rth_706aad08-fa76-4d33-92a2-a885817524d1", "address": "3F, Space Studios, Vaughan St, Manchester M12 5FQ", "url": "http://www.direct-digital.com", "name": "Direct Digital"}}, {"type": "Feature", "geometry": {"type": "Point", "coordinates": [18.510324, -33.866662]}, "properties": {"id": "rth_9c938288-05f3-4d3b-99fe-4fceeeb2a0b8", "address": "Cape Island Studios, 3 Sanlam Business Park, Koeberg Road, Milnerton, Cape Town, 7435", "url": "http://www.direct-digital.com", "name": "Direct Digital"}}, {"type": "Feature", "geometry": {"type": "Point", "coordinates": [-73.994171, 40.748667]}, "properties": {"id": "rth_2c13204b-bb3b-4f51-9aee-f1cd47075c89", "address": "231 W 29th St Suite 210, New York, NY 10001", "url": "http://www.duallcamera.com/catalog/index.shtml", "name": "Du-All Camera"}}, {"type": "Feature", "geometry": {"type": "Point", "coordinates": [-46.729167, -23.533988]}, "properties": {"id": "rth_115fb7bc-5fad-4d67-b1e3-1f38b53413ce", "address": "Rua Heli\u00f3polis, 75 - Vila Hamburguesa, S\u00e3o Paulo - SP, 05318-010", "url": "http://www.elitecam.com.br", "name": "Elitecam"}}, {"type": "Feature", "geometry": {"type": "Point", "coordinates": [2.341064, 48.928512]}, "properties": {"id": "rth_301e1f6b-dcb8-454d-a120-b5c9ed436b36", "address": "6 boulevard de la Lib\u00e9ration 93200 Saint-Denis", "url": "http://www.emit.fr", "name": "EMIT"}}, {"type": "Feature", "geometry": {"type": "Point", "coordinates": [16.338198, 48.137301]}, "properties": {"id": "rth_0bff26bf-5560-44b4-8e63-d08c89cbfecb", "address": "Slamastrasse 43, 1230 Wien", "url": "https://www.equipment.cafe", "name": "EQC"}}, {"type": "Feature", "geometry": {"type": "Point", "coordinates": [-118.259184, 34.08651]}, "properties": {"id": "rth_1d3415a7-ccf2-4f45-ad22-ec61087786f8", "address": "2122 Aaron St, Los Angeles, CA 90026", "url": "http://www.evidencecameras.com", "name": "Evidence Cameras"}}, {"type": "Feature", "geometry": {"type": "Point", "coordinates": [-3.628329, 40.433836]}, "properties": {"id": "rth_4a397e42-8465-409d-b793-4e0a8c25c859", "address": "Calle Sta. Leonor, 61, 1\u00ba Piso - Oficina 2, 28037 Madrid", "url": "https://www.exodorental.com", "name": "Exodo Rental"}}, {"type": "Feature", "geometry": {"type": "Point", "coordinates": [-0.666364, 44.779536]}, "properties": {"id": "rth_850b1165-24fd-4ae9-82d3-d270a29c80fd", "address": "16 avenue Claude Chappe 33600 Pessac", "url": "http://www.eye-lite.com", "name": "Eye-Lite Bordeaux"}}, {"type": "Feature", "geometry": {"type": "Point", "coordinates": [4.44592, 50.89177]}, "properties": {"id": "rth_04fde5e4-3ad9-4c46-a864-cbb7c324d695", "address": "Woluwelaan 141C, 1831 Machelen", "url": "http://www.eye-lite.com", "name": "Eye-Lite Brussels"}}, {"type": "Feature", "geometry": {"type": "Point", "coordinates": [2.396877, 48.922678]}, "properties": {"id": "rth_aca0e5ab-14b4-40b7-9454-3e7f7fc2a889", "address": "32 rue Raspail 93120 La Courneuve", "url": "http://www.eye-lite.com", "name": "Eye-Lite France"}}, {"type": "Feature", "geometry": {"type": "Point", "coordinates": [6.118202, 49.603442]}, "properties": {"id": "rth_98ba4e06-9950-41c4-9aae-1283b186bb17", "address": "6 place de nullcy 1544 Luxembourg", "url": "http://www.eye-lite.com", "name": "Eye-Lite Luxembourg"}}, {"type": "Feature", "geometry": {"type": "Point", "coordinates": [7.740181, 48.561282]}, "properties": {"id": "rth_5e751a98-4b44-43e8-8d9a-625598617296", "address": "33 rue du Mar\u00e9chal Lefebvre 67100 Strasbourg", "url": "http://www.eye-lite.com", "name": "Eye-Lite Strasbourg"}}, {"type": "Feature", "geometry": {"type": "Point", "coordinates": [6.138921, 46.190231]}, "properties": {"id": "rth_6f29ea7e-953e-4dbd-bcd4-0ab6723eb6f3", "address": "Rue Simon-Durand 11, 1227 Gen\u00e8ve", "url": "http://www.eye-lite.ch", "name": "Eye-Lite Suisse"}}, {"type": "Feature", "geometry": {"type": "Point", "coordinates": [1.474391, 43.637721]}, "properties": {"id": "rth_f0d1a8cb-a916-42bb-963f-18bead02d0c5", "address": "9 impasse L\u00e9once Couture 31200 Toulouse", "url": "http://www.eye-lite.com", "name": "Eye-Lite Toulouse"}}, {"type": "Feature", "geometry": {"type": "Point", "coordinates": [13.29054, 52.498089]}, "properties": {"id": "rth_636fd68e-3eb1-49d1-9e97-01827b517983", "address": "Georg-Wilhelm-Stra\u00dfe 2 10711 Berlin", "url": "http://www.fgv-rental.de", "name": "FGV Schmidle"}}, {"type": "Feature", "geometry": {"type": "Point", "coordinates": [11.599637, 48.106989]}, "properties": {"id": "rth_869f1d2d-2651-44e2-aeef-8d39900b6040", "address": "Aschauer Str. 8 81549 M\u00fcnchen", "url": "http://www.fgv-rental.de", "name": "FGV Schmidle"}}, {"type": "Feature", "geometry": {"type": "Point", "coordinates": [29.00796, 41.07001]}, "properties": {"id": "rth_7db07a1c-1936-42ff-b16e-7c035c7369e3", "address": "Esentepe, Gazeteciler Sit. Dergiler Sk. No:3, 34360 \u015ei\u015fli/\u0130stanbul", "url": "https://www.filmarka.com", "name": "Filmarka"}}, {"type": "Feature", "geometry": {"type": "Point", "coordinates": [55.18777, 25.02992]}, "properties": {"id": "rth_64656d70-782b-483a-a80b-ba5a6e5201ba", "address": "Warehouse B34, International Media Production Zone, Dubai", "url": "https://www.filmquipmedia.com", "name": "Filmquip Media"}}, {"type": "Feature", "geometry": {"type": "Point", "coordinates": [54.524434, 24.321743]}, "properties": {"id": "rth_4c13cd46-4367-42bd-bc38-4d9b41be0b29", "address": "TwoFour54, Studios Musaffah, Abu Dhabi", "url": "https://www.filmquipmedia.com", "name": "Filmquip Media"}}, {"type": "Feature", "geometry": {"type": "Point", "coordinates": [77.196343, 28.524582]}, "properties": {"id": "rth_d8e10196-5e2e-46a4-a189-3958db6c4b7f", "address": "M-212, Himmat Singh Marg, Nai Basti, Lado Sarai, New Delhi, Delhi 110030", "url": "http://www.flamingofilmsindia.com", "name": "Flamingo Films"}}, {"type": "Feature", "geometry": {"type": "Point", "coordinates": [101.590275, 3.114694]}, "properties": {"id": "rth_bf39c9c4-4eb7-41c7-9cc6-c51cb75c4871", "address": "B-G-07 Block C Pusat Dagangan NZX, Jalan PJU 1A/41B, Ara Damansara, 47301 Petaling Jaya, Selangor", "url": "http://www.equipmentrentalhouse.com", "name": "Flier Equipment Rental House"}}, {"type": "Feature", "geometry": {"type": "Point", "coordinates": [-61.568992, 6.240019]}, "properties": {"id": "rth_445b16b6-6c2d-41bd-ab0d-d2d3bc7da24c", "address": "ZI Jarry, Immeuble Orlando, Baie-Mahault 97122, Guadeloupe", "url": "http://www.flightcasefwi.com", "name": "Flight Case FWI"}}, {"type": "Feature", "geometry": {"type": "Point", "coordinates": [2.338833, 48.841164]}, "properties": {"id": "rth_1419b2c2-4529-4da7-988b-953c2f2e3bf7", "address": "29 bis Rue Henri Barbusse 75005 Paris", "url": "https://www.full-motion.fr", "name": "Full Motion"}}, {"type": "Feature", "geometry": {"type": "Point", "coordinates": [-97.702027, 30.252194]}, "properties": {"id": "rth_0e286fb9-d83b-4bf9-ae37-76844b23d488", "address": "4822 E Cesar Chavez St, Austin, TX 78702", "url": "http://www.hdgear.tv", "name": "GEAR Cameras and Lighting"}}, {"type": "Feature", "geometry": {"type": "Point", "coordinates": [-3.612481, 40.551102]}, "properties": {"id": "rth_1ab18bb3-8495-42fc-9e20-769aa07b92fd", "address": "Av. de los Montes de Oca, 20, Nave 3, 28703 San Sebasti\u00e1n de los Reyes, Madrid", "url": "https://www.harmonicarental.com", "name": "Harmonica Rental"}}, {"type": "Feature", "geometry": {"type": "Point", "coordinates": [-118.352488, 34.025187]}, "properties": {"id": "rth_e5363164-70c5-4636-8e46-6d22af73a6b4", "address": "5009 Exposition Blvd, Los Angeles, CA 90016", "url": "http://www.vantagefilm.com/", "name": "Hawk Anamorphic Los Angeles"}}, {"type": "Feature", "geometry": {"type": "Point", "coordinates": [-118.360829, 34.205084]}, "properties": {"id": "rth_0d1ecb8b-71f6-47ff-94fc-04f458e726a0", "address": "3100 N Damon Way, Burbank, CA 91505", "url": "http://www.hollywoodcamera.com", "name": "Hollywood Camera"}}, {"type": "Feature", "geometry": {"type": "Point", "coordinates": [55.224254, 25.14028]}, "properties": {"id": "rth_11a7006e-f356-4e32-97a1-4502206a05e1", "address": "6A St, Al Quoz, Dubai", "url": "http://www.iconfilmequiprental.com", "name": "Icon Film Equipment Rental"}}, {"type": "Feature", "geometry": {"type": "Point", "coordinates": [55.238652, 25.166093]}, "properties": {"id": "rth_860400f3-3cf8-4e5b-8b70-6c8bcd9827e6", "address": "Dubai Studio City, Al Quoz 3, Dubai", "url": "http://www.inhousefilm.com", "name": "In House Film"}}, {"type": "Feature", "geometry": {"type": "Point", "coordinates": [4.891698, 45.769279]}, "properties": {"id": "rth_50866b39-9c97-4b63-b873-cbd6070b88a2", "address": "254 rue F. Pressens\u00e9 B\u00e2t 5 69100 Villeurbanne", "url": "https://www.indie.rent", "name": "Indie Location"}}, {"type": "Feature", "geometry": {"type": "Point", "coordinates": [2.248656, 48.836781]}, "properties": {"id": "rth_424ebc0b-617b-4fed-9cb4-ac3b505b38b4", "address": "47 bis Rue Thiers, 92100 Boulogne-Billancourt", "url": "http://www.jamaya.fr", "name": "Jamaya"}}, {"type": "Feature", "geometry": {"type": "Point", "coordinates": [-70.679941, -33.361892]}, "properties": {"id": "rth_30fc16a5-1a58-4f17-b885-456401a5c0bc", "address": "Calle Nva 1757, Huechuraba, Santiago", "url": "http://www.jpfcine.cl/camera-equipment/", "name": "JPF Cine"}}, {"type": "Feature", "geometry": {"type": "Point", "coordinates": [-74.006706, 40.654239]}, "properties": {"id": "rth_090f708f-391f-4790-bbca-98191f53cad2", "address": "325 38th St, Brooklyn, NY 11232", "url": "http://www.kmrentaleq.com", "name": "K&M Rentals"}}, {"type": "Feature", "geometry": {"type": "Point", "coordinates": [10.766061, 59.953019]}, "properties": {"id": "rth_ed68cb03-2eb0-46b5-bc22-5fd09f999fd4", "address": "Gjerdrumsvei 6, N-0484 Oslo", "url": "http://www.kamerarental.com", "name": "Kamara Rental"}}, {"type": "Feature", "geometry": {"type": "Point", "coordinates": [12.550499, 55.700114]}, "properties": {"id": "rth_3bb83076-9349-4bbd-9386-e7269006af4c", "address": "R\u00e5dmandsgade 37-39, 2200 K\u00f8benhavn", "url": "http://www.kamerarental.com", "name": "Kamara Rental"}}, {"type": "Feature", "geometry": {"type": "Point", "coordinates": [12.006327, 57.726143]}, "properties": {"id": "rth_22ac2a04-89d0-4a42-b9f1-37f85dac4f50", "address": "Gamlestadsv\u00e4gen 4 - B2, 415 02, G\u00f6teborg", "url": "http://www.kamerarental.com", "name": "Kamara Rental"}}, {"type": "Feature", "geometry": {"type": "Point", "coordinates": [25.047167, 60.210434]}, "properties": {"id": "rth_2e1056d0-0a5c-48f7-8f40-bb2c70204c7b", "address": "Laippatie 14, 00880 Helsinki", "url": "http://www.kamerafirma.fi", "name": "Kamerafirma"}}, {"type": "Feature", "geometry": {"type": "Point", "coordinates": [11.652588, 48.190277]}, "properties": {"id": "rth_d5089069-c36c-4b54-b0c9-065b96f19506", "address": "Dieselstra\u00dfe 3 85774 Unterf\u00f6hring", "url": "http://www.klt-rental.de", "name": "Kameraverleih Licht und Ton"}}, {"type": "Feature", "geometry": {"type": "Point", "coordinates": [-118.374794, 34.030356]}, "properties": {"id": "rth_b4df73bf-b97e-4f6f-a5ba-b7a4ac369d54", "address": "5900 Blackwelder St, Culver City, CA 90232", "url": "https://www.keslowcamera.com", "name": "Keslow Camera"}}, {"type": "Feature", "geometry": {"type": "Point", "coordinates": [-87.690977, 41.859694]}, "properties": {"id": "rth_533ffe68-127d-4a82-86d1-a5051931588d", "address": "2602 W 16th St 2nd floor, Chicago, IL 60608", "url": "https://www.keslowcamera.com", "name": "Keslow Camera"}}, {"type": "Feature", "geometry": {"type": "Point", "coordinates": [-90.181861, 29.944503]}, "properties": {"id": "rth_543ef142-13b2-49b6-bff6-c8120a6e76d1", "address": "201 Evans Rd Suite 303, Harahan, LA 70123", "url": "https://www.keslowcamera.com", "name": "Keslow Camera"}}, {"type": "Feature", "geometry": {"type": "Point", "coordinates": [-111.914311, 40.73026]}, "properties": {"id": "rth_76d81cbf-f013-446e-b3a8-22060fd4c827", "address": "812 W Layton Ave, Suite A, Salt Lake City, UT 84104", "url": "https://www.keslowcamera.com", "name": "Keslow Camera"}}, {"type": "Feature", "geometry": {"type": "Point", "coordinates": [-84.405459, 33.769862]}, "properties": {"id": "rth_ca5c85d3-55ac-4659-9ae9-2cb07548a201", "address": "554 N Ave NW Suite A, Atlanta, GA 30318", "url": "https://www.keslowcamera.com", "name": "Keslow Camera"}}, {"type": "Feature", "geometry": {"type": "Point", "coordinates": [-106.655433, 35.10089]}, "properties": {"id": "rth_221d1c27-84eb-4103-843d-ee3a424910f3", "address": "815 Bellamah Ave NW, Albuquerque, NM 87102", "url": "https://www.keslowcamera.com", "name": "Keslow Camera"}}, {"type": "Feature", "geometry": {"type": "Point", "coordinates": [-123.039614, 49.312877]}, "properties": {"id": "rth_4ca25a85-e7fe-48ab-8a63-13b788dc45e5", "address": "1225 Keith Rd E #2, North Vancouver, BC V7J 1J3", "url": "https://www.keslowcamera.com", "name": "Keslow Camera"}}, {"type": "Feature", "geometry": {"type": "Point", "coordinates": [-79.351468, 43.704098]}, "properties": {"id": "rth_e7bccf11-1235-419e-ba9f-6c8b59ca2b9e", "address": "16 Overlea Blvd, Toronto, ON M4H 1A4", "url": "https://www.keslowcamera.com", "name": "Keslow Camera"}}, {"type": "Feature", "geometry": {"type": "Point", "coordinates": [4.399744, 50.863841]}, "properties": {"id": "rth_953a9891-b15c-438a-9256-a6bc774b965b", "address": "Boulevard G\u00e9n\u00e9ral Wahis 16F, 1030 Bruxelles", "url": "https://www.kgs.be", "name": "Key Grip Systems"}}, {"type": "Feature", "geometry": {"type": "Point", "coordinates": [25.277136, 54.671954]}, "properties": {"id": "rth_c1b9c856-6bd7-4178-aabe-6aac69f2fa93", "address": "Mindaugo st. 42A, Vilnius 01311", "url": "https://www.kinolab.lt", "name": "Kinolab"}}, {"type": "Feature", "geometry": {"type": "Point", "coordinates": [24.925585, 60.15247]}, "properties": {"id": "rth_4c56f39c-4f78-4d46-8c03-0a38afb9762b", "address": "Henry Fordin katu 6F, 00150 Helsinki", "url": "http://www.kinosrentals.fi/camera-department/", "name": "Kinos Rentals"}}, {"type": "Feature", "geometry": {"type": "Point", "coordinates": [-122.651391, 45.502329]}, "properties": {"id": "rth_e4aada04-0d49-4d01-a4f4-4b2ade4ef458", "address": "2828 SE 14th Ave, Portland, OR 97202", "url": "http://www.koernercamera.com", "name": "Koerner Camera Systems"}}, {"type": "Feature", "geometry": {"type": "Point", "coordinates": [-122.355411, 47.648332]}, "properties": {"id": "rth_0895ca19-a786-4f2d-a75b-0ee6c2d2dda8", "address": "101 Nickerson St, Seattle, WA 98109", "url": "http://www.koernercamera.com", "name": "Koerner Camera Systems"}}, {"type": "Feature", "geometry": {"type": "Point", "coordinates": [10.759066, 59.934601]}, "properties": {"id": "rth_0061583e-8956-45cc-9f39-c813c2846e5f", "address": "Sandakerveien 24C, Bygg C3, 0473 Oslo", "url": "http://www.kryptonfilm.no", "name": "Krypton Film"}}, {"type": "Feature", "geometry": {"type": "Point", "coordinates": [-21.810742, 64.152777]}, "properties": {"id": "rth_40c16f34-620b-4855-a3ce-46ad791566f3", "address": "J\u00f6fursb\u00e1s 4, 112 Reykjav\u00edk", "url": "http://www.kukl.is", "name": "Kukl Rental"}}, {"type": "Feature", "geometry": {"type": "Point", "coordinates": [5.367509, 43.301446]}, "properties": {"id": "rth_2137b722-7c80-4d49-b49f-23554cb4b0ef", "address": "2 Place Francis Chirat 13002 Marseille", "url": "https://www.laproddusud.com", "name": "La Prod du Sud"}}, {"type": "Feature", "geometry": {"type": "Point", "coordinates": [-118.386023, 34.02631]}, "properties": {"id": "rth_00cb785d-99fd-4d38-8aa1-698557870c11", "address": "3975 Landmark St #700, Culver City, CA 90232", "url": "http://www.lensworksrentals.com", "name": "Lensworks Rentals"}}, {"type": "Feature", "geometry": {"type": "Point", "coordinates": [-75.187233, 39.911183]}, "properties": {"id": "rth_2b361b63-4709-4a4f-a90c-c29cc10dff0d", "address": "2239 Hartranft St, Philadelphia, PA 19145", "url": "http://www.libertycamera.com", "name": "Liberty Camera"}}, {"type": "Feature", "geometry": {"type": "Point", "coordinates": [4.446491, 50.948609]}, "properties": {"id": "rth_8375c674-0bcb-4105-aede-cb351841f56e", "address": "Fabriekstraat 81, 1800 Vilvoorde", "url": "https://www.lites.be", "name": "LITES"}}, {"type": "Feature", "geometry": {"type": "Point", "coordinates": [4.867009, 52.394841]}, "properties": {"id": "rth_d2c2394b-982c-4334-a035-2c850ac19b2c", "address": "Nieuwe Hemweg 5B, 1013 BG Amsterdam", "url": "https://www.litesfilm.nl", "name": "LITES"}}, {"type": "Feature", "geometry": {"type": "Point", "coordinates": [11.99934, 57.748]}, "properties": {"id": "rth_8cc72c41-3cb6-4fc2-bd9a-3719a460d0b0", "address": "Backa Berg\u00f6gata 12A, 422 46 Hisings Backa", "url": "https://www.ljud-bildmedia.se", "name": "Ljud Bildmedia"}}, {"type": "Feature", "geometry": {"type": "Point", "coordinates": [18.11678, 59.34384]}, "properties": {"id": "rth_d746e3ab-7f48-4edd-8876-724ff8d4c764", "address": "Voltav\u00e4gen 9, 168 69 Bromma", "url": "https://www.ljud-bildmedia.se", "name": "Ljud Bildmedia"}}, {"type": "Feature", "geometry": {"type": "Point", "coordinates": [2.349635, 48.882127]}, "properties": {"id": "rth_42ea1630-e1c8-4b62-b3c6-fe3c51e99650", "address": "173 rue du Faubourg Poissonni\u00e8re 75009 Paris", "url": "http://www.loca-images.com", "name": "Loca Images"}}, {"type": "Feature", "geometry": {"type": "Point", "coordinates": [-118.324996, 34.091676]}, "properties": {"id": "rth_44bb03c3-04df-4ff4-943b-0e6bbf9a904d", "address": "6212 Banner Ave, Los Angeles, CA 90038", "url": "https://www.losangelescamerarentals.com", "name": "Los Angeles Camera Rental"}}, {"type": "Feature", "geometry": {"type": "Point", "coordinates": [-0.568347, 47.489444]}, "properties": {"id": "rth_99d0f9fc-085d-4131-8c39-a9cb2c1e1cb2", "address": "42 rue du G\u00e9n\u00e9ral Liz\u00e9 49100 Angers", "url": "http://www.loutacam.fr", "name": "Loutacam"}}, {"type": "Feature", "geometry": {"type": "Point", "coordinates": [13.421358, 52.457077]}, "properties": {"id": "rth_4ceb4486-a2e0-4d74-981e-78e2a1eec13e", "address": "Bergholzstra\u00dfe 1-4 12099 Berlin", "url": "http://www.ludwig-kamera.de", "name": "Ludwig Kameraverleih"}}, {"type": "Feature", "geometry": {"type": "Point", "coordinates": [11.66855, 48.124449]}, "properties": {"id": "rth_e4e57a2e-0d89-4987-a943-0eddcc26cad9", "address": "Lehrer-G\u00f6tz-Weg 17 81825 M\u00fcnchen", "url": "http://www.ludwig-kamera.de", "name": "Ludwig Kameraverleih"}}, {"type": "Feature", "geometry": {"type": "Point", "coordinates": [12.329598, 51.328136]}, "properties": {"id": "rth_20bb30e7-90c6-4148-b055-a181fd1f4a5e", "address": "Industriestra\u00dfe 95 04229 Leipzig", "url": "http://www.ludwig-kamera.de", "name": "Ludwig Kameraverleih"}}, {"type": "Feature", "geometry": {"type": "Point", "coordinates": [6.886943, 50.942863]}, "properties": {"id": "rth_b8529328-76d1-4849-92f0-250eae0453cc", "address": "Stolberger Str. 366/Haus C 50933 K\u00f6ln", "url": "http://www.ludwig-kamera.de", "name": "Ludwig Kameraverleih"}}, {"type": "Feature", "geometry": {"type": "Point", "coordinates": [9.915685, 53.57644]}, "properties": {"id": "rth_ca9f6709-0d2c-4420-b273-49bf31ba0970", "address": "Winsbergring 34 22525 Hamburg", "url": "http://www.ludwig-kamera.de", "name": "Ludwig Kameraverleih"}}, {"type": "Feature", "geometry": {"type": "Point", "coordinates": [10.997936, 50.961888]}, "properties": {"id": "rth_ae9ea8af-6d20-4bcf-960c-73508b01b4be", "address": "Erich-K\u00e4stner-Stra\u00dfe 1 99094 Erfurt", "url": "http://www.ludwig-kamera.de", "name": "Ludwig Kameraverleih"}}, {"type": "Feature", "geometry": {"type": "Point", "coordinates": [10.021803, 48.820661]}, "properties": {"id": "rth_f4d7aea2-a87b-4f09-b095-bd9831e6067f", "address": "Streichhoffeld 3 73457 Essingen", "url": "http://www.ludwig-kamera.de", "name": "Ludwig Kameraverleih"}}, {"type": "Feature", "geometry": {"type": "Point", "coordinates": [12.59319, 55.706944]}, "properties": {"id": "rth_62b82435-2068-488d-b530-12fa31bd8737", "address": "Trelleborggade 9, 2150 K\u00f8benhavn", "url": "http://www.maanrental.com", "name": "MAAN Rental"}}, {"type": "Feature", "geometry": {"type": "Point", "coordinates": [10.213889, 56.150703]}, "properties": {"id": "rth_e0147bdf-9b5f-423a-b2d6-50feab59bd45", "address": "Filmbyen 23, 8000 Aarhus", "url": "http://www.maanrental.com", "name": "MAAN Rental"}}, {"type": "Feature", "geometry": {"type": "Point", "coordinates": [10.449336, 55.217731]}, "properties": {"id": "rth_14e39c1b-05f0-45d7-9371-88b4c03707c7", "address": "Kokskovvej 28, 5750 Ringe", "url": "http://www.maanrental.com", "name": "MAAN Rental"}}, {"type": "Feature", "geometry": {"type": "Point", "coordinates": [2.376179, 48.857633]}, "properties": {"id": "rth_175e61cd-9263-41fd-a851-b17644a83ff8", "address": "54 rue Sedaine 75011 Paris", "url": "http://www.maximaloc.com", "name": "Maximaloc"}}, {"type": "Feature", "geometry": {"type": "Point", "coordinates": [8.584168, 50.124468]}, "properties": {"id": "rth_7f512ee9-360b-473a-a87a-3174f091e875", "address": "Westerbachstra\u00dfe 164, 65936 Frankfurt am Main", "url": "http://www.mbf.de", "name": "MBF Filmtechnik"}}, {"type": "Feature", "geometry": {"type": "Point", "coordinates": [-118.413235, 34.00639]}, "properties": {"id": "rth_073a8aa5-6fa9-4f46-96e3-94139d3dbdd9", "address": "11222 Washington Blvd, Culver City, CA 90230", "url": "http://www.mediaboxcamera.com", "name": "Media Box Camera"}}, {"type": "Feature", "geometry": {"type": "Point", "coordinates": [9.291217, 45.540702]}, "properties": {"id": "rth_db0c0213-5b99-4b96-b0be-62fde560ce15", "address": "Via Carlo Porta, 3, 20093 Cologno Monzese MI", "url": "http://www.moviepeople.it", "name": "Movie People"}}, {"type": "Feature", "geometry": {"type": "Point", "coordinates": [9.221597, 45.446739]}, "properties": {"id": "rth_4b271de1-4f09-47c9-a837-0e9d1af1ce3a", "address": "Via Giulio Verne, 1, 20137 Milano MI", "url": "http://www.moviechrome.com", "name": "Moviechrome"}}, {"type": "Feature", "geometry": {"type": "Point", "coordinates": [-96.840017, 32.985665]}, "properties": {"id": "rth_a65c34a6-fab3-46c4-85ac-089ea74d47e8", "address": "3328 Waypoint Dr, Carrollton, TX 75006", "url": "http://www.hdgear.tv", "name": "MP&E Cameras and Lighting"}}, {"type": "Feature", "geometry": {"type": "Point", "coordinates": [-111.881889, 33.636251]}, "properties": {"id": "rth_d8c4b111-6b61-4306-89f8-cd8b19d258d8", "address": "16585 N 92nd St Unit 104, Scottsdale, AZ 85260", "url": "http://www.hdgear.tv", "name": "MP&E Cameras and Lighting"}}, {"type": "Feature", "geometry": {"type": "Point", "coordinates": [-105.011309, 39.663508]}, "properties": {"id": "rth_e871266f-aae5-4d28-9bdc-ffcdee6ba136", "address": "2931 S Tejon St B, Englewood, CO 80110", "url": "http://www.hdgear.tv", "name": "MP&E Cameras and Lighting"}}, {"type": "Feature", "geometry": {"type": "Point", "coordinates": [-97.695653, 30.300298]}, "properties": {"id": "rth_e424146c-efa1-464e-bec7-7c27e6533121", "address": "1901 E 51st St Unit 110, Austin, TX 78723", "url": "http://www.mpsfilm.com", "name": "MPS Film"}}, {"type": "Feature", "geometry": {"type": "Point", "coordinates": [-56.191262, -34.877283]}, "properties": {"id": "rth_cae8df77-bc67-4ce9-ac35-b42111774e3c", "address": "Vilardeb\u00f3 1272, 11800 Montevideo", "url": "https://www.musitelli.com", "name": "Musitelli Film & Digital"}}, {"type": "Feature", "geometry": {"type": "Point", "coordinates": [-70.648739, -33.370106]}, "properties": {"id": "rth_c3a474ba-433f-451c-9f52-2b1be5699c7a", "address": "El Rosal 5187, Huechuraba", "url": "http://www.muvi.cl", "name": "Muvi"}}, {"type": "Feature", "geometry": {"type": "Point", "coordinates": [-95.391145, 29.790621]}, "properties": {"id": "rth_e91b12b1-4387-4ef5-97ba-0cd91050de0b", "address": "620 E 11th St, Houston, TX 77008", "url": "http://www.nadjifilms.com", "name": "Nadji Films"}}, {"type": "Feature", "geometry": {"type": "Point", "coordinates": [2.192085, 41.393406]}, "properties": {"id": "rth_14bb924e-eef6-4966-929c-7c4217d23e55", "address": "Carrer de Llull, 48, 08005 Barcelona", "url": "http://www.napalmrentals.com", "name": "Napalm Rentals"}}, {"type": "Feature", "geometry": {"type": "Point", "coordinates": [2.336543, 48.922772]}, "properties": {"id": "rth_dfdacd9f-7a03-4329-9326-352cbcd14f0b", "address": "La Cit\u00e9 du Cin\u00e9ma, 20 rue Amp\u00e8re 93210 Saint-Denis", "url": "http://www.nextshot.com", "name": "Nextshot"}}, {"type": "Feature", "geometry": {"type": "Point", "coordinates": [145.023708, -37.753728]}, "properties": {"id": "rth_a9128be8-8ff3-4a8a-8de7-5a8225841898", "address": "7 Kerr St, Preston VIC 3072", "url": "http://www.offshoot.rentals", "name": "Offshoot Rentals"}}, {"type": "Feature", "geometry": {"type": "Point", "coordinates": [-118.371849, 34.236713]}, "properties": {"id": "rth_67b420b1-e927-4523-9326-a2c9ce6bb991", "address": "11058 Randall St, Sun Valley, CA 91352", "url": "http://www.oldfastglass.com", "name": "Old Fast Glass"}}, {"type": "Feature", "geometry": {"type": "Point", "coordinates": [-79.52499, 43.610894]}, "properties": {"id": "rth_0fd0592e-2ff4-4630-9c3b-927655892280", "address": "20 Torlake Crescent, Etobicoke, ON M8Z 1B3", "url": "http://www.ontariocamera.com", "name": "Ontario Camera Rentals"}}, {"type": "Feature", "geometry": {"type": "Point", "coordinates": [-75.584087, 45.456169]}, "properties": {"id": "rth_726a927e-53d2-4270-adf6-f2c1b5e9a4c5", "address": "1010 Polytek St Unit 10, Gloucester, ON K1J 9H9", "url": "https://www.origincamerarental.com", "name": "Origin Camera Rental"}}, {"type": "Feature", "geometry": {"type": "Point", "coordinates": [28.905557, 41.159487]}, "properties": {"id": "rth_a004e280-003c-4e3f-aeca-20a7275d2930", "address": "Mithatpa\u015fa, Kumsu Sk. No:11, 34075 Ey\u00fcpsultan/\u0130stanbul", "url": "https://example.com", "name": "Orion Kamera & I\u015f\u0131k"}}, {"type": "Feature", "geometry": {"type": "Point", "coordinates": [-8.521437, 42.911032]}, "properties": {"id": "rth_c8d9dedb-794f-4a40-9f8f-4d5fb6f645a0", "address": "Rua M Angeles Gandara 12, Nave C19, 15890 Santiago de Compostela, A Coru\u00f1a", "url": "http://www.ovide.com", "name": "Ovide"}}, {"type": "Feature", "geometry": {"type": "Point", "coordinates": [-5.99992, 37.398351]}, "properties": {"id": "rth_a5af3464-afe0-4e3e-b76d-432c9637faa3", "address": "C. Curtidur\u00edas, 12b, 41002 Sevilla, EspagneC. Curtidur\u00edas, 12b, 41002 Sevilla", "url": "http://www.ovide.com", "name": "Ovide"}}, {"type": "Feature", "geometry": {"type": "Point", "coordinates": [-0.46234, 39.513588]}, "properties": {"id": "rth_6bbed9fa-c15e-41b2-8757-3128292411db", "address": "Plaza Avil\u00e9s 1, 46988 Paterna", "url": "http://www.ovide.com", "name": "Ovide"}}, {"type": "Feature", "geometry": {"type": "Point", "coordinates": [-3.61118, 40.552357]}, "properties": {"id": "rth_2db5a879-77a6-4f29-a151-1d00bf7d317e", "address": "Av. Montes de Oca 19, Nave 23, 28703 San Sebasti\u00e1n de los Reyes", "url": "http://www.ovide.com", "name": "Ovide"}}, {"type": "Feature", "geometry": {"type": "Point", "coordinates": [2.235243, 41.430511]}, "properties": {"id": "rth_d0682fa9-da6c-4666-a8e8-cf979419d261", "address": "Calle Eduard Maristany 396, 08918 Badalona", "url": "http://www.ovide.com", "name": "Ovide"}}, {"type": "Feature", "geometry": {"type": "Point", "coordinates": [4.898835, 45.756379]}, "properties": {"id": "rth_bd8fcbb1-26a8-44a5-af2f-846cff29231d", "address": "P\u00f4le Pixel 36 rue Emile Decorps 69100 Villeurbanne", "url": "http://www.panavision.fr", "name": "Panavision"}}, {"type": "Feature", "geometry": {"type": "Point", "coordinates": [-0.359651, 51.540075]}, "properties": {"id": "rth_8820e0a5-8ad0-4164-a172-57d64cc9acee", "address": "The Metropolitan Centre, Bristol Road, Greenford UB6 8GD", "url": "http://www.panavision.co.uk", "name": "Panavision"}}, {"type": "Feature", "geometry": {"type": "Point", "coordinates": [-0.556792, 44.85216]}, "properties": {"id": "rth_dd3e21c3-5ecf-4933-9c16-64c4a04b6c72", "address": "2 quai de Brazza 33100 Bordeaux", "url": "https://www.panavision.fr", "name": "Panavision"}}, {"type": "Feature", "geometry": {"type": "Point", "coordinates": [-1.673675, 48.086118]}, "properties": {"id": "rth_5ea935d1-3b57-4854-88ea-b3762b052353", "address": "107 avenue Henri Fr\u00e9ville 35200 Rennes", "url": "https://www.panavision.fr", "name": "Panavision"}}, {"type": "Feature", "geometry": {"type": "Point", "coordinates": [3.861975, 43.573077]}, "properties": {"id": "rth_66850b2e-04e0-4790-a6a2-41c907d52ea7", "address": "48 rue Claude Balbastre 34070 Montpellier", "url": "https://www.panavision.fr", "name": "Panavision"}}, {"type": "Feature", "geometry": {"type": "Point", "coordinates": [5.420894, 43.322322]}, "properties": {"id": "rth_4247a47c-d8ad-474c-8fe7-9157a34fad55", "address": "6 boulevard Gueidon 13013 Marseille", "url": "https://www.panavision.fr", "name": "Panavision"}}, {"type": "Feature", "geometry": {"type": "Point", "coordinates": [-74.005445, 40.726278]}, "properties": {"id": "rth_49aae04b-0092-4cd1-b60d-1fdc1ec5dddd", "address": "150 Varick St, New York, NY 10013", "url": "https://www.panavision.com", "name": "Panavision"}}, {"type": "Feature", "geometry": {"type": "Point", "coordinates": [-87.66641, 41.887535]}, "properties": {"id": "rth_e2176a8e-9164-4699-be8b-400744e3dbec", "address": "1554 W Carroll Ave, Chicago, IL 60607", "url": "https://www.panavision.com", "name": "Panavision"}}, {"type": "Feature", "geometry": {"type": "Point", "coordinates": [-97.002157, 32.915727]}, "properties": {"id": "rth_af600b73-a251-4a99-8372-4674a8b9212e", "address": "8000 Jetstar Dr, Irving, TX 75063", "url": "https://www.panavision.com", "name": "Panavision"}}, {"type": "Feature", "geometry": {"type": "Point", "coordinates": [-90.188473, 29.955198]}, "properties": {"id": "rth_fc49394b-6bb7-4c63-b29f-c1be0f3a58db", "address": "837 Distributors Row, New Orleans, LA 70123", "url": "https://www.panavision.com", "name": "Panavision"}}, {"type": "Feature", "geometry": {"type": "Point", "coordinates": [-84.42237, 33.787211]}, "properties": {"id": "rth_c2c6cb63-2fdb-4a5f-86f8-fb896ddb40ab", "address": "1250 Menlo Dr NW, Atlanta, GA 30318", "url": "https://www.panavision.com", "name": "Panavision"}}, {"type": "Feature", "geometry": {"type": "Point", "coordinates": [-106.610001, 35.121952]}, "properties": {"id": "rth_a1fdb61b-fd6c-4d6c-9533-9363b806bf89", "address": "3521 Bryn Mawr Dr NE, Albuquerque, NM 87107", "url": "https://www.panavision.com", "name": "Panavision"}}, {"type": "Feature", "geometry": {"type": "Point", "coordinates": [-122.972934, 49.189664]}, "properties": {"id": "rth_14ea6897-b5e8-470f-ad1b-eb9b61305060", "address": "5560 Trapp Ave, Burnaby, BC V3N 5G4", "url": "https://www.panavision.com", "name": "Panavision"}}, {"type": "Feature", "geometry": {"type": "Point", "coordinates": [-79.343516, 43.726882]}, "properties": {"id": "rth_d5553008-7e84-4662-a145-6a63a2b1049f", "address": "900A Don Mills Rd, North York, Toronto, ON M3C 1V6", "url": "https://www.panavision.com", "name": "Panavision"}}, {"type": "Feature", "geometry": {"type": "Point", "coordinates": [-113.994522, 50.957645]}, "properties": {"id": "rth_a2960c23-0aa3-48b8-81ad-46e025f81178", "address": "2880 107 Ave SE, Unit 118, Calgary, AB T2Z 3R7", "url": "https://www.panavision.com", "name": "Panavision"}}, {"type": "Feature", "geometry": {"type": "Point", "coordinates": [-63.602347, 44.714215]}, "properties": {"id": "rth_590e2b66-93e9-4e4f-81a4-829faa40261f", "address": "192 Joseph Zatzman Drive, Suite 5, Dartmouth, NS B3B 1N4", "url": "https://www.panavision.com", "name": "Panavision"}}, {"type": "Feature", "geometry": {"type": "Point", "coordinates": [28.140895, -25.945118]}, "properties": {"id": "rth_593b77b5-99b3-4219-b87c-99e4b5a27db9", "address": "79 Reedbuck Cres, Randjespark, Midrand, 1685", "url": "https://www.panavision.com", "name": "Panavision"}}, {"type": "Feature", "geometry": {"type": "Point", "coordinates": [18.511071, -33.866508]}, "properties": {"id": "rth_503c0090-e5fe-4a46-a6c0-3dc93b84c007", "address": "Racecourse Rd, Milnerton Business Park, Phase 6, Milnerton, Cape Town, 7441", "url": "https://www.panavision.com", "name": "Panavision"}}, {"type": "Feature", "geometry": {"type": "Point", "coordinates": [151.148423, -33.803852]}, "properties": {"id": "rth_1b0da9d8-c98c-4e42-b469-31598a4cd92c", "address": "1/706 Mowbray Rd W, Lane Cove North NSW 2066", "url": "https://www.panavision.com", "name": "Panavision"}}, {"type": "Feature", "geometry": {"type": "Point", "coordinates": [144.909938, -37.823377]}, "properties": {"id": "rth_1f3f8c48-c77c-4d64-8145-899f80419f8a", "address": "4/344 Lorimer St, Port Melbourne VIC 3207", "url": "https://www.panavision.com", "name": "Panavision"}}, {"type": "Feature", "geometry": {"type": "Point", "coordinates": [153.312907, -27.910494]}, "properties": {"id": "rth_97f8ccee-9c02-4090-a4d5-5f524f0772a2", "address": "Warner Roadshow Studios, Pacific Highway, Oxenford QLD 4210", "url": "https://www.panavision.com", "name": "Panavision"}}, {"type": "Feature", "geometry": {"type": "Point", "coordinates": [174.731111, -36.855229]}, "properties": {"id": "rth_8c03b6c8-5523-4026-b426-b88f2c5da392", "address": "318 Richmond Road, Grey Lynn, Auckland 1021", "url": "https://www.panavision.com", "name": "Panavision"}}, {"type": "Feature", "geometry": {"type": "Point", "coordinates": [4.402849, 50.851631]}, "properties": {"id": "rth_f73d8348-e3c5-41b8-b148-eeada3b5b83f", "address": "Boulevard Auguste Reyers 52 1044 Schaerbeek", "url": "https://www.panavision.com", "name": "Panavision"}}, {"type": "Feature", "geometry": {"type": "Point", "coordinates": [4.452299, 50.396699]}, "properties": {"id": "rth_a0eed9c5-0e6a-4b64-bc67-c9593ff404ad", "address": "Rue Jules Destr\u00e9e 52 6001 Charleroi", "url": "https://www.panavision.com", "name": "Panavision"}}, {"type": "Feature", "geometry": {"type": "Point", "coordinates": [-3.114168, 51.501939]}, "properties": {"id": "rth_12fbbdf9-d171-41d9-9a9a-1a4a1a370088", "address": "Capital Business Park, Unit J2, Cardiff CF3 2PX", "url": "http://www.panavision.co.uk", "name": "Panavision"}}, {"type": "Feature", "geometry": {"type": "Point", "coordinates": [-0.421483, 51.692993]}, "properties": {"id": "rth_5cc51639-d1b4-4d32-a718-d67a926714a7", "address": "Door 27, Warner Bros. Studios, Aerodrome Way, Watford WD25 7GN", "url": "http://www.panavision.co.uk", "name": "Panavision"}}, {"type": "Feature", "geometry": {"type": "Point", "coordinates": [-5.912494, 54.626395]}, "properties": {"id": "rth_dbb43c36-bb0b-4ab8-b793-c44dbd0e1fcb", "address": "Loughside Industrial Park Unit 9, Belfast, BT3 9JA", "url": "http://www.panavision.co.uk", "name": "Panavision"}}, {"type": "Feature", "geometry": {"type": "Point", "coordinates": [-2.197856, 53.470341]}, "properties": {"id": "rth_8e4433bf-94d8-4926-a513-af92f5d62846", "address": "1B, Space Studios, Vaughan St, Manchester M12 5FQ", "url": "http://www.panavision.co.uk", "name": "Panavision"}}, {"type": "Feature", "geometry": {"type": "Point", "coordinates": [-6.125276, 53.19659]}, "properties": {"id": "rth_42ed7de7-7469-406b-a999-015d0de6ab8b", "address": "The Lodge Ardmore Studios, Herbert Rd, Killarney, Bray, Wicklow", "url": "http://www.panavision.ie", "name": "Panavision"}}, {"type": "Feature", "geometry": {"type": "Point", "coordinates": [2.368033, 48.904529]}, "properties": {"id": "rth_99b73e14-c113-4f7e-bba6-cd96b70ed337", "address": "45 avenue Victor Hugo B\u00e2timent 217 93300 Aubervilliers", "url": "http://www.panavision.fr", "name": "Panavision Alga"}}, {"type": "Feature", "geometry": {"type": "Point", "coordinates": [-118.337214, 34.100245]}, "properties": {"id": "rth_7109e58f-7f61-4a8e-807c-1a1c9ba38f0d", "address": "6735 Selma Ave, Los Angeles, CA 90028", "url": "https://www.panavision.com", "name": "Panavision Hollywood"}}, {"type": "Feature", "geometry": {"type": "Point", "coordinates": [-84.514812, 33.47409]}, "properties": {"id": "rth_0166ec8c-5b26-4661-93bf-b1975b83e3c0", "address": "500 Sandy Creek Rd, Building 2004, Suite 103, Fayetteville, GA 30214", "url": "https://www.panavision.com", "name": "Panavision Pinewood Studios"}}, {"type": "Feature", "geometry": {"type": "Point", "coordinates": [-118.593152, 34.181557]}, "properties": {"id": "rth_d94f8539-601c-4429-b6cd-dd9cf9943dc6", "address": "6101 Variel Ave, Woodland Hills, CA 91367", "url": "https://www.panavision.com", "name": "Panavision Woodland Hills"}}, {"type": "Feature", "geometry": {"type": "Point", "coordinates": [-0.12059, 51.54035]}, "properties": {"id": "rth_326a8ae0-070b-483b-99d2-5798b7b0a133", "address": "Carol St, Islington, London NW1 0HT", "url": "http://www.pannyhire.co.uk", "name": "Panny Hire"}}, {"type": "Feature", "geometry": {"type": "Point", "coordinates": [-118.347983, 34.168004]}, "properties": {"id": "rth_8d772683-d0ef-48fc-b516-26fce436d2b9", "address": "3727 W Magnolia Blvd, Burbank, CA 91505", "url": "https://www.pannyhire.com", "name": "Panny Hire"}}, {"type": "Feature", "geometry": {"type": "Point", "coordinates": [2.365513, 48.875304]}, "properties": {"id": "rth_7f0cdd09-9ed1-4c05-97b3-f0addb1d7aeb", "address": "8 rue de l'H\u00f4pital Saint-Louis 75010 Paris", "url": "http://www.photocinerent.com", "name": "PhotoCineRent"}}, {"type": "Feature", "geometry": {"type": "Point", "coordinates": [138.624878, -34.927122]}, "properties": {"id": "rth_dbaaad48-ba7e-42fc-9324-1f93fc26ced4", "address": "26 Clarke St, Norwood SA 5067", "url": "http://www.picturehire.com", "name": "Picture Hire Australia"}}, {"type": "Feature", "geometry": {"type": "Point", "coordinates": [2.537377, 48.836604]}, "properties": {"id": "rth_8b6c087d-0343-4bdc-b236-0a8b654b107f", "address": "3 boulevard Georges M\u00e9li\u00e8s 94350 Villiers-sur-Marne", "url": "http://www.planningcamera.fr", "name": "Planning Cam\u00e9ra"}}, {"type": "Feature", "geometry": {"type": "Point", "coordinates": [2.338732, 48.92747]}, "properties": {"id": "rth_adf7df75-a7b3-45d5-9003-56646ca1830d", "address": "2 Boulevard de la Lib\u00e9ration, B\u00e2timent A2, 93200 Saint-Denis", "url": "http://www.pleineimage-loc.com", "name": "Pleine Image Location"}}, {"type": "Feature", "geometry": {"type": "Point", "coordinates": [127.045101, 37.509986]}, "properties": {"id": "rth_ec74fdda-e158-4362-aa77-78a1462cd83f", "address": "112-14 Samseong-dong, Gangnam-gu, Seoul", "url": "http://www.procamkorea.com", "name": "Pro Cam"}}, {"type": "Feature", "geometry": {"type": "Point", "coordinates": [2.353991, 48.836669]}, "properties": {"id": "rth_0ff44600-11d6-4e75-8fe0-806696fb8d55", "address": "17 rue de la Reine Blanche 75013 Paris", "url": "http://www.puzzlevideo.fr", "name": "Puzzle Vid\u00e9o"}}, {"type": "Feature", "geometry": {"type": "Point", "coordinates": [-118.374843, 34.033026]}, "properties": {"id": "rth_e91516da-d70c-4c5c-a83e-b28b4137ace6", "address": "2762 S La Cienega Blvd, Los Angeles, CA 90034", "url": "http://www.rarebreedswest.com", "name": "Rare Breeds"}}, {"type": "Feature", "geometry": {"type": "Point", "coordinates": [80.235471, 13.0527]}, "properties": {"id": "rth_175e976d-8426-41a7-adbc-d2e1dd892510", "address": "18, Porur Sundaram St, Darmapuram, T. Nagar, Chennai, Tamil Nadu 600017", "url": "http://www.raviprasadunit.com", "name": "Ravi Prasad Unit"}}, {"type": "Feature", "geometry": {"type": "Point", "coordinates": [11.934004, 57.708076]}, "properties": {"id": "rth_63b5964c-64c5-4c1e-aed6-a0ad64905666", "address": "Polstj\u00e4rnegatan 14, 417 56 G\u00f6teborg", "url": "http://www.maanrental.com", "name": "REDRENTAL by MAAN"}}, {"type": "Feature", "geometry": {"type": "Point", "coordinates": [-84.176355, 34.118557]}, "properties": {"id": "rth_55465329-6e77-4186-b4af-e961eac69e89", "address": "554 W Main St Building B Suite 200, Buford, GA30518", "url": "https://remedyrentalgear.com", "name": "Remedy Rentals"}}, {"type": "Feature", "geometry": {"type": "Point", "coordinates": [76.850265, 43.250801]}, "properties": {"id": "rth_7aca1b6f-7545-4ba6-86a5-6da691b68a18", "address": "Rayimbek Ave 486\u0411, Almaty", "url": "http://www.rent-a-film.kz", "name": "Rent A Film"}}, {"type": "Feature", "geometry": {"type": "Point", "coordinates": [21.002823, 52.1592]}, "properties": {"id": "rth_1c17f240-854c-4780-9095-51e4bd9c64b9", "address": "Poleczki 29, 02-822 Warszawa", "url": "http://www.rentcam.pl", "name": "RentCam"}}, {"type": "Feature", "geometry": {"type": "Point", "coordinates": [174.755148, -36.849324]}, "properties": {"id": "rth_2a84e33f-d7bf-4549-a903-45ae7f5c48a1", "address": "29 Sale Street, Auckland CBD, Auckland 1010", "url": "https://www.rocketrentals.com", "name": "Rocket Rentals"}}, {"type": "Feature", "geometry": {"type": "Point", "coordinates": [174.81219, -41.246265]}, "properties": {"id": "rth_c8978276-b825-4fb4-99b6-6c63e3fae440", "address": "5/7 McCormack Place, Ngauranga, Wellington 6035", "url": "https://www.rocketrentals.com", "name": "Rocket Rentals"}}, {"type": "Feature", "geometry": {"type": "Point", "coordinates": [-58.439807, -34.58305]}, "properties": {"id": "rth_fed6e408-f42a-4170-bbf1-73c9b80493fb", "address": "Gorriti 5842, C1414 BKJ, Buenos Aires", "url": "http://www.rowingrental.com", "name": "Rowing Rental"}}, {"type": "Feature", "geometry": {"type": "Point", "coordinates": [2.404106, 48.811929]}, "properties": {"id": "rth_fc52f8db-c870-4bd3-a7f2-09eb63bdfc06", "address": "39 rue Maurice Gunsbourg 94205 Ivry-sur-Seine", "url": "http://www.rvz-location.fr", "name": "RVZ"}}, {"type": "Feature", "geometry": {"type": "Point", "coordinates": [-8.004208, 31.666493]}, "properties": {"id": "rth_0de68266-8db3-4339-9ae2-513c4c7e05d0", "address": "Ecole Sup\u00e9rieure des Arts Visuels 40002 Marrakech", "url": "http://www.rvz-location.fr", "name": "RVZ"}}, {"type": "Feature", "geometry": {"type": "Point", "coordinates": [-117.169416, 32.72805]}, "properties": {"id": "rth_97b9ed7e-a9a7-4fb0-a6d9-c6d52a010723", "address": "2230 Columbia St, San Diego, CA 92101", "url": "https://www.sandiegofilmequipment.com", "name": "San Diego Film Equipment"}}, {"type": "Feature", "geometry": {"type": "Point", "coordinates": [139.733622, 35.684408]}, "properties": {"id": "rth_90e9841d-cf7f-4708-b08e-ab89803be619", "address": "5-5 Kojimac, hi, Chiyoda-ku, 102-0083, Tokyo", "url": "http://www.sanwa-group.com/", "name": "Sanwa Cine Equipment"}}, {"type": "Feature", "geometry": {"type": "Point", "coordinates": [135.499674, 34.712883]}, "properties": {"id": "rth_04b760b0-6d2e-4ac8-9d6a-3aa8af1cf786", "address": "5-3-1 Toyosaki, Kita-ku, Osaka 531-0072", "url": "http://www.sanwa-group.com", "name": "Sanwa Cine Equipment"}}, {"type": "Feature", "geometry": {"type": "Point", "coordinates": [13.45304, 52.503415]}, "properties": {"id": "rth_2d50e200-13db-4889-b1d0-a225a3a2bc55", "address": "Rotherstra\u00dfe 5, 10245 Berlin", "url": "http://www.seeyourent.de", "name": "See You Rent"}}, {"type": "Feature", "geometry": {"type": "Point", "coordinates": [2.188505, 41.395697]}, "properties": {"id": "rth_a0539a5b-4e12-41cc-b235-1b57fc8b828f", "address": "Carrer de Joan d'\u00c0ustria, 116, 08018 Barcelona", "url": "https://www.seitocamera.com", "name": "Seito Camera"}}, {"type": "Feature", "geometry": {"type": "Point", "coordinates": [2.38882, 48.874814]}, "properties": {"id": "rth_ae8e7960-3b6b-4209-8dd0-046bc5999f8f", "address": "130 rue de Belleville 75020 Paris", "url": "http://www.sesama.com", "name": "Sesama"}}, {"type": "Feature", "geometry": {"type": "Point", "coordinates": [-0.27396, 51.501035]}, "properties": {"id": "rth_ef84016e-bc33-4ec8-bf96-27fd5e47a913", "address": "Unit 10, Roslin Square, Roslin Rd, London W3 8DH", "url": "http://www.shootblue.tv", "name": "Shoot Blue"}}, {"type": "Feature", "geometry": {"type": "Point", "coordinates": [-123.025238, 49.258685]}, "properties": {"id": "rth_4139ea2d-b3db-4aec-99f6-73a5eea183d9", "address": "3645 Grandview Hwy, Vancouver, BC V5M 2G7", "url": "http://www.siminternational.com", "name": "Sim"}}, {"type": "Feature", "geometry": {"type": "Point", "coordinates": [-79.419321, 43.636538]}, "properties": {"id": "rth_3278f470-aed9-4a1e-a610-afc1b5c6cc8b", "address": "1 Atlantic Ave, Suite110, Toronto, ON M6K 3E7", "url": "http://www.siminternational.com", "name": "Sim"}}, {"type": "Feature", "geometry": {"type": "Point", "coordinates": [-79.462595, 46.313309]}, "properties": {"id": "rth_dde6f76b-81ab-4050-aa74-b7009832a483", "address": "575 Fraser St, North Bay, ON P1B 3X3", "url": "http://www.siminternational.com", "name": "Sim"}}, {"type": "Feature", "geometry": {"type": "Point", "coordinates": [2.333888, 48.891337]}, "properties": {"id": "rth_e4725400-2ddc-4084-9d9f-45423bb10193", "address": "42 rue Eug\u00e8ne Carri\u00e8re 75018 Paris", "url": "http://www.soscine.fr", "name": "SosCine"}}, {"type": "Feature", "geometry": {"type": "Point", "coordinates": [4.834042, 45.757294]}, "properties": {"id": "rth_81b128bc-7f6e-4d15-ab03-94400da6f4a1", "address": "17 place Bellecour 69002 Lyon", "url": "http://www.soscine.fr", "name": "SosCine"}}, {"type": "Feature", "geometry": {"type": "Point", "coordinates": [2.394004, 48.870578]}, "properties": {"id": "rth_ef7c3a16-7975-49b2-a61e-87d08aa5b750", "address": "282 rue des Pyr\u00e9n\u00e9es 75020 Paris", "url": "http://www.sousexposition.com", "name": "Sous-exposition"}}, {"type": "Feature", "geometry": {"type": "Point", "coordinates": [151.1973, -33.783876]}, "properties": {"id": "rth_9c647c66-cd9b-4cd6-81c5-c32af97bc89a", "address": "Chatswood Business Park, 9U/175 Lower Gibbes St, Chatswood East NSW 2067", "url": "http://www.southerncrosscameras.com", "name": "Southern Cross Cameras Australia"}}, {"type": "Feature", "geometry": {"type": "Point", "coordinates": [-118.394966, 34.199681]}, "properties": {"id": "rth_e0b60abf-cadd-4c0d-a4a9-ab298559dec8", "address": "12023 Vose St Unit 23, North Hollywood, CA 91605", "url": "http://www.standardcamera.com", "name": "Standard Camera"}}, {"type": "Feature", "geometry": {"type": "Point", "coordinates": [16.339604, 48.215435]}, "properties": {"id": "rth_1f96775f-b4ce-48ff-9a4b-e3f601765916", "address": "Ottakringer Str. 16, 1170 Wien", "url": "http://www.stoegerkameras.at", "name": "St\u00f6ger Kameras"}}, {"type": "Feature", "geometry": {"type": "Point", "coordinates": [10.758086, 59.929683]}, "properties": {"id": "rth_61e556a6-4872-4d34-98c2-399f711165ed", "address": "Thorvald Meyers Gate 7, 0555 Oslo", "url": "http://www.storyline.no", "name": "Storyline Studios"}}, {"type": "Feature", "geometry": {"type": "Point", "coordinates": [-118.449041, 34.046268]}, "properties": {"id": "rth_cd806418-5143-4eea-bb21-d1296bc5596b", "address": "11318 Santa Monica Blvd, Los Angeles, CA 90025", "url": "https://www.strayangel.com", "name": "Stray Angel Films"}}, {"type": "Feature", "geometry": {"type": "Point", "coordinates": [144.950106, -37.831215]}, "properties": {"id": "rth_798320e5-2517-4ab9-a3d9-ca4b294e2018", "address": "95 Buckhurst St, South Melbourne VIC 3205", "url": "http://www.sunstudiosaustralia.com/hire", "name": "Sun Studios"}}, {"type": "Feature", "geometry": {"type": "Point", "coordinates": [151.193285, -33.907394]}, "properties": {"id": "rth_b3d2d571-fbd3-4913-bc2f-2c23366e88d8", "address": "42 Maddox St, Alexandria NSW 2015", "url": "http://www.sunstudiosaustralia.com/hire", "name": "Sun Studios"}}, {"type": "Feature", "geometry": {"type": "Point", "coordinates": [28.983767, 41.099747]}, "properties": {"id": "rth_6e1aba24-e768-4fa1-aa91-df2e47047b13", "address": "Seyrantepe Mahallesi, Narin Sk. No:3/A, 34418 K\u00e2\u011f\u0131thane/\u0130stanbul", "url": "http://www.svccamera.istanbul/iletisim", "name": "SVC Camera"}}, {"type": "Feature", "geometry": {"type": "Point", "coordinates": [-118.330165, 34.088804]}, "properties": {"id": "rth_a311142e-725e-4318-b46c-5ff6d5f3b01b", "address": "957 Cole Ave, Los Angeles, CA 90038", "url": "https://www.t-stopinc.com", "name": "T-stop"}}, {"type": "Feature", "geometry": {"type": "Point", "coordinates": [77.163843, 28.65367]}, "properties": {"id": "rth_49a431cc-f454-42c2-892d-1ce91665c857", "address": "1st Floor, 28/56, Block 28, West Patel Nagar, Patel Nagar, Delhi, 110008", "url": "https://www.take2films.co.in", "name": "Take 2 Films"}}, {"type": "Feature", "geometry": {"type": "Point", "coordinates": [-0.275762, 51.523618]}, "properties": {"id": "rth_4ec5c373-b824-4330-9b7b-32f144b8e86f", "address": "Westpoint, Unit 10, Trading Estate Rd, Alliance Rd, London W3 0RA", "url": "https://www.take2films.co.uk", "name": "Take 2 Films"}}, {"type": "Feature", "geometry": {"type": "Point", "coordinates": [-73.997388, 40.762744]}, "properties": {"id": "rth_2505da13-980b-4764-ad52-3e151eb47a48", "address": "599 11th Ave Ground Floor, New York, NY 10036", "url": "http://www.tcsfilm.com", "name": "TCS"}}, {"type": "Feature", "geometry": {"type": "Point", "coordinates": [2.29737, 48.812951]}, "properties": {"id": "rth_5432aba3-45d0-4ec2-aafb-df4a24f5d81a", "address": "38 bis rue Paul Vaillant Couturier 92240 Malakoff", "url": "http://www.telline.fr", "name": "Telline"}}, {"type": "Feature", "geometry": {"type": "Point", "coordinates": [-95.463601, 29.723773]}, "properties": {"id": "rth_fef185cd-c023-4d2a-9e24-70bb4a4cec98", "address": "1323 N 1st St, Bellaire, TX 77401", "url": "http://www.texcam.com", "name": "Texcam"}}, {"type": "Feature", "geometry": {"type": "Point", "coordinates": [151.216925, -33.94251]}, "properties": {"id": "rth_434a932f-ff6f-42f0-8ff1-41093ea1af63", "address": "118 Wentworth Ave, Banksmeadow NSW 2019", "url": "http://www.thefront.com.au", "name": "The Front"}}, {"type": "Feature", "geometry": {"type": "Point", "coordinates": [144.938244, -37.841541]}, "properties": {"id": "rth_1c49ce54-94cc-4c0a-a5b6-e14b466d3a2e", "address": "195 Rouse St, Port Melbourne VIC 3207", "url": "http://www.thevisionhouse.com.au", "name": "The Vision House"}}, {"type": "Feature", "geometry": {"type": "Point", "coordinates": [-8.579914, 41.145408]}, "properties": {"id": "rth_2756e71f-1906-4b89-8496-13de18915101", "address": "Rua do Freixo, 1071 A.3, 4300-219 Porto", "url": "http://www.toolboxportugal.com", "name": "Toolbox"}}, {"type": "Feature", "geometry": {"type": "Point", "coordinates": [-118.309744, 33.837179]}, "properties": {"id": "rth_b2b6ab99-a88e-4184-b2d7-eaed6182692e", "address": "21151 S Western Ave Ste 100, Torrance, CA 90501", "url": "http://www.toplensrental.com", "name": "Top Lens Rental"}}, {"type": "Feature", "geometry": {"type": "Point", "coordinates": [2.310369, 48.931943]}, "properties": {"id": "rth_e2a1b27a-ee96-4401-96a9-1992fe2e93e5", "address": "7-11 rue de l'Industrie 92230 Gennevilliers", "url": "http://www.transpacam.com", "name": "Transpacam"}}, {"type": "Feature", "geometry": {"type": "Point", "coordinates": [103.754096, 1.343513]}, "properties": {"id": "rth_bf1ce1b6-d00a-4964-8212-1172e4b17335", "address": "1 Tampines North Dr. 1, #07-10, Singapour 528559", "url": "https://www.truecolourmedia.com", "name": "True Colour Media Group"}}, {"type": "Feature", "geometry": {"type": "Point", "coordinates": [103.680104, 1.518429]}, "properties": {"id": "rth_1f920aef-eae6-4eef-9b07-346350c4d514", "address": "7, Jalan Pertama 5, Pusat Perdagangan Danga Utama, 81300 Johor Bahru", "url": "https://www.truecolourmedia.com", "name": "True Colour Media Group"}}, {"type": "Feature", "geometry": {"type": "Point", "coordinates": [2.365565, 48.909674]}, "properties": {"id": "rth_047e6a20-ed28-4add-9bc8-fe713eac49ae", "address": "9 rue des Fillettes 93210 Saint-Denis", "url": "http://www.tsf.fr", "name": "TSF"}}, {"type": "Feature", "geometry": {"type": "Point", "coordinates": [-0.552182, 44.814054]}, "properties": {"id": "rth_290d5612-434f-4f93-9bf6-987c3ca639c1", "address": "5/10 rue des Terres Neuves 33130 B\u00e8gles", "url": "http://www.tsf.fr", "name": "TSF Aquitaine"}}, {"type": "Feature", "geometry": {"type": "Point", "coordinates": [2.342331, 48.896622]}, "properties": {"id": "rth_3f3b127e-16fc-4dba-87dc-f5e15784601f", "address": "79 rue Henri Fabre 34130 Maugio", "url": "http://www.tsf.fr", "name": "TSF Montpellier"}}, {"type": "Feature", "geometry": {"type": "Point", "coordinates": [5.389752, 43.309441]}, "properties": {"id": "rth_b460da89-9cd0-4f69-89cf-ca803cb06f38", "address": "37 rue Guibal 13003 Marseille", "url": "http://www.tsf.fr", "name": "TSF Sud"}}, {"type": "Feature", "geometry": {"type": "Point", "coordinates": [4.399671, 50.862832]}, "properties": {"id": "rth_3e2aee1a-e75d-40b4-a26b-eaa26d57ec79", "address": "Boulevard G\u00e9n\u00e9ral Wahis 16EB 1030 Schaerbeek", "url": "http://www.tsfbe.be", "name": "TSF.be"}}, {"type": "Feature", "geometry": {"type": "Point", "coordinates": [5.585865, 50.632757]}, "properties": {"id": "rth_8a2a80f0-c9b3-4360-808c-91512076a7d1", "address": "Rue de Mulhouse 36 4020 Li\u00e8ge", "url": "http://www.tsfbe.be", "name": "TSF.be"}}, {"type": "Feature", "geometry": {"type": "Point", "coordinates": [2.333794, 48.917905]}, "properties": {"id": "rth_6c7c0041-7a22-422c-b5e8-9eed7a77a3c5", "address": "16 rue Cage 93400 Saint-Ouen", "url": "http://www.turtlemaxlocation.com", "name": "Turtle Max Location"}}, {"type": "Feature", "geometry": {"type": "Point", "coordinates": [13.402611, 52.492073]}, "properties": {"id": "rth_952cde50-0e29-4eaa-9f36-14d73e2bef8a", "address": "Bl\u00fccherstra\u00dfe 28/29 10961 Berlin", "url": "https://www.ufo-filmgeraet.de", "name": "UFO Filmger\u00e4t"}}, {"type": "Feature", "geometry": {"type": "Point", "coordinates": [11.60936, 48.133387]}, "properties": {"id": "rth_7645a48d-0ed7-4ba6-acf3-0cad01ca5473", "address": "Kirchenstra\u00dfe 89B 81675 M\u00fcnchen", "url": "https://www.ufo-filmgeraet.de", "name": "UFO Filmger\u00e4t"}}, {"type": "Feature", "geometry": {"type": "Point", "coordinates": [34.791176, 32.063258]}, "properties": {"id": "rth_c6f03aa6-d08c-48b2-9dc3-69b85f9ff0cd", "address": "Nirim St 10, Tel Aviv-Yafo", "url": "http://www.utopiacam.com", "name": "Utopia"}}, {"type": "Feature", "geometry": {"type": "Point", "coordinates": [2.357951, 48.907047]}, "properties": {"id": "rth_b3302510-7014-4664-a1f8-92be8f87f6ab", "address": "113-121 avenue du Pr\u00e9sident Wilson 93210 La Plaine Saint-Denis", "url": "http://www.vantagefilm.com", "name": "Vantage"}}, {"type": "Feature", "geometry": {"type": "Point", "coordinates": [4.325893, 50.821554]}, "properties": {"id": "rth_651d718e-36ca-4420-b4b3-2a7084cc585a", "address": "1190 Avenue Van Volxem 1190 Bruxelles", "url": "http://www.vantagefilm.com/", "name": "Vantage"}}, {"type": "Feature", "geometry": {"type": "Point", "coordinates": [13.417032, 52.465036]}, "properties": {"id": "rth_1f1131a8-2977-4ee7-82de-1846acee5a44", "address": "Oberlandstra\u00dfe 13-14 12099 Berlin", "url": "http://www.vantagefilm.com/", "name": "Vantage Film"}}, {"type": "Feature", "geometry": {"type": "Point", "coordinates": [14.407174, 50.051147]}, "properties": {"id": "rth_9ede5d40-77a2-41cb-bc74-a78db930cc15", "address": "K\u0159\u00ed\u017eov\u00e1 2601/2 150 00 Prague 5, Sm\u00edchov", "url": "http://www.vantagefilm.com/", "name": "Vantage Film"}}, {"type": "Feature", "geometry": {"type": "Point", "coordinates": [12.148268, 49.673413]}, "properties": {"id": "rth_4dc070ff-eacc-4eee-9231-44561fa3205c", "address": "Altstra\u00dfe 9 92637 Weiden", "url": "http://www.vantagefilm.com/", "name": "Vantage Film"}}, {"type": "Feature", "geometry": {"type": "Point", "coordinates": [-118.272358, 34.150348]}, "properties": {"id": "rth_c2a7e6d8-413c-409c-9c4d-64494395f061", "address": "757 West California Ave Building 4, Glendale, CA 91203", "url": "http://www.ver.com/ver-camera-los-angeles", "name": "VER Camera"}}, {"type": "Feature", "geometry": {"type": "Point", "coordinates": [11.525789, 48.096041]}, "properties": {"id": "rth_e7678563-025b-4a74-827d-f350ff33570e", "address": "Geb\u00e4ude 75 Kistlerhofstra\u00dfe 70 81379 M\u00fcnchen", "url": "http://www.videolink.de", "name": "Videolink"}}, {"type": "Feature", "geometry": {"type": "Point", "coordinates": [2.398981, 48.839546]}, "properties": {"id": "rth_2883abf4-4517-4414-a892-d1b2669074d0", "address": "74 boulevard de Reuilly 75012 Paris", "url": "http://www.visualsfrance.com/location.php", "name": "Visual Impact France"}}, {"type": "Feature", "geometry": {"type": "Point", "coordinates": [6.057223, 46.224561]}, "properties": {"id": "rth_e2b2f802-2fb6-458d-9376-e3323a583799", "address": "Rue du Pr\u00e9-Bouvier 8, 1242 Satigny", "url": "http://www.visuals.ch", "name": "Visuals Switzerland"}}, {"type": "Feature", "geometry": {"type": "Point", "coordinates": [8.397997, 47.403517]}, "properties": {"id": "rth_ee3c4773-9ff4-46ad-8b0b-0a8e6d4219f4", "address": "Bergstrasse 23, 8953 Dietikon", "url": "http://www.visuals.ch", "name": "Visuals Switzerland"}}, {"type": "Feature", "geometry": {"type": "Point", "coordinates": [-3.624024, 40.438524]}, "properties": {"id": "rth_c1dbc526-1764-4751-a353-0e3d37a025c5", "address": "C. de Albasanz, 59, 28037 Madrid", "url": "https://www.welab.es", "name": "Welab"}}, {"type": "Feature", "geometry": {"type": "Point", "coordinates": [-15.42018, 28.117109]}, "properties": {"id": "rth_0f392e8a-a4cb-4939-8aff-49622c63fd4a", "address": "Av. Alcalde Jos\u00e9 Ramirez Bethencourt, 17, 35004 Las Palmas de Gran Canaria, Las Palmas", "url": "http://www.welabcanaryislands.com", "name": "Welab"}}, {"type": "Feature", "geometry": {"type": "Point", "coordinates": [23.749431, 37.899854]}, "properties": {"id": "rth_2be13188-d11a-4f2d-be69-81b6f8aa8849", "address": "Ermou 39, Elliniko 167 77", "url": "http://www.whitebalance.gr", "name": "White Balance"}}, {"type": "Feature", "geometry": {"type": "Point", "coordinates": [-122.92212, 49.254617]}, "properties": {"id": "rth_a56b5126-13f0-45bb-90f0-de87c605417a", "address": "8363 Lougheed Hwy, Burnaby, BC V5A 1X3", "url": "http://www.whites.com", "name": "William F. White International"}}, {"type": "Feature", "geometry": {"type": "Point", "coordinates": [-79.511482, 43.616288]}, "properties": {"id": "rth_8a8d26ad-474d-4ecf-9ece-28add98e91fd", "address": "800 Islington Ave, Etobicoke, ON M8Z 6A1", "url": "http://www.whites.com", "name": "William F. White International"}}, {"type": "Feature", "geometry": {"type": "Point", "coordinates": [-113.950269, 50.98528]}, "properties": {"id": "rth_285b976b-d989-445d-9587-a3e5ea8b3284", "address": "5750 76 Ave SE Unit 50, Calgary, AB T2C 5N5", "url": "http://www.whites.com", "name": "William F. White International"}}, {"type": "Feature", "geometry": {"type": "Point", "coordinates": [-63.575863, 44.723127]}, "properties": {"id": "rth_b740ce15-acf5-479c-aafb-c15ec0503d86", "address": "315 Wilkinson Ave #1, Dartmouth, NS B3B", "url": "http://www.whites.com", "name": "William F. White International"}}, {"type": "Feature", "geometry": {"type": "Point", "coordinates": [-97.21078, 49.926972]}, "properties": {"id": "rth_18ae06be-e0ce-4373-a63b-44e6304f369e", "address": "2073 Logan Ave #11, Winnipeg, MB R2R 0J1", "url": "http://www.whites.com", "name": "William F. White International"}}, {"type": "Feature", "geometry": {"type": "Point", "coordinates": [-80.987133, 46.513657]}, "properties": {"id": "rth_bd5291a6-dc94-4ab6-a460-d161baa0d35c", "address": "922 Cambrian Heights Dr Unit 2, Sudbury, ON P3C 5M6", "url": "http://www.whites.com", "name": "William F. White International"}}, {"type": "Feature", "geometry": {"type": "Point", "coordinates": [-103.414798, 20.694117]}, "properties": {"id": "rth_6863e972-1974-427e-88ef-2e2e719c6872", "address": "Paseo de Los Parques 4372, Universitaria, 45110 Zapopan, Jal.", "url": "https://www.yakcine.com", "name": "Yakcine"}}, {"type": "Feature", "geometry": {"type": "Point", "coordinates": [2.194658, 41.395714]}, "properties": {"id": "rth_54e4c011-a207-46dd-a7cb-f66eea918059", "address": "Carrer d'\u00c0laba, 51, Bajos 3\u00aa, 08005 Barcelona", "url": "http://www.zigzagrental.com", "name": "Zig Zag Rental"}}]}