{
  "type": "FeatureCollection",
  "features": [
    {
      "geometry": {
        "coordinates": [
          -118.444745,
          33.990765
        ],
        "type": "Point"
      },
      "properties": {
        "address": "13428 Beach Ave, Marina Del Rey, CA 90292",
        "name": "942738b5ad5e"
      },
      "type": "Feature"
    },
    {
      "geometry": {
        "coordinates": [
          -79.598884,
          43.588256
        ],
        "type": "Point"
      },
      "properties": {
        "address": "2440 Tedlo St, Mississauga, ON L5A 3V3",
        "name": "638b1b2c6165"
      },
      "type": "Feature"
    },
    {
      "geometry": {
        "coordinates": [
          2.412785,
          48.888618
        ],
        "type": "Point"
      },
      "properties": {
        "address": "3 rue Meissonnier 93500 Pantin",
        "name": "b4acd339a3c4"
      },
      "type": "Feature"
    },
    {
      "geometry": {
        "coordinates": [
          -118.312952,
          34.16523
        ],
        "type": "Point"
      },
      "properties": {
        "address": "801 S Main St, Burbank, CA 91506",
        "name": "973a65eb56bf"
      },
      "type": "Feature"
    },
    {
      "geometry": {
        "coordinates": [
          -74.006785,
          40.656432
        ],
        "type": "Point"
      },
      "properties": {
        "address": "88 35th St 4th Floor, Brooklyn, NY 11232",
        "name": "108c63c48cc4"
      },
      "type": "Feature"
    },
    {
      "geometry": {
        "coordinates": [
          -87.691056,
          41.859397
        ],
        "type": "Point"
      },
      "properties": {
        "address": "2602 W 16th St 4th floor, Chicago, IL 60608",
        "name": "5f2357548c08"
      },
      "type": "Feature"
    },
    {
      "geometry": {
        "coordinates": [
          2.156593,
          41.384402
        ],
        "type": "Point"
      },
      "properties": {
        "address": "Carrer del Consell de Cent, 201, 08011 Barcelona",
        "name": "ed452e599aa5"
      },
      "type": "Feature"
    },
    {
      "geometry": {
        "coordinates": [
          55.222494,
          25.140378
        ],
        "type": "Point"
      },
      "properties": {
        "address": "P.O. Box 111046, Dubai",
        "name": "22460c30aa95"
      },
      "type": "Feature"
    },
    {
      "geometry": {
        "coordinates": [
          -118.323093,
          34.083905
        ],
        "type": "Point"
      },
      "properties": {
        "address": "5625 Melrose Ave, Hollywood, CA 90038",
        "name": "adbff1176e35"
      },
      "type": "Feature"
    },
    {
      "geometry": {
        "coordinates": [
          25.0471,
          60.20174
        ],
        "type": "Point"
      },
      "properties": {
        "address": "Sahaajankatu 28, 00880 Helsinki",
        "name": "5579a08d1dc3"
      },
      "type": "Feature"
    },
    {
      "geometry": {
        "coordinates": [
          24.73457,
          59.42405
        ],
        "type": "Point"
      },
      "properties": {
        "address": "Videviku 29, 10131 Tallinn",
        "name": "36b1d32b3c1d"
      },
      "type": "Feature"
    },
    {
      "geometry": {
        "coordinates": [
          -118.351466,
          34.192218
        ],
        "type": "Point"
      },
      "properties": {
        "address": "3700 Vanowen St, Burbank, CA 91505",
        "name": "8205fbec4b3c"
      },
      "type": "Feature"
    },
    {
      "geometry": {
        "coordinates": [
          -74.069875,
          40.784272
        ],
        "type": "Point"
      },
      "properties": {
        "address": "25 Enterprise Ave N, Secaucus, NJ 07094",
        "name": "86be2faab2ec"
      },
      "type": "Feature"
    },
    {
      "geometry": {
        "coordinates": [
          6.139879,
          49.588714
        ],
        "type": "Point"
      },
      "properties": {
        "address": "20 Rangwee 2412 Luxembourg",
        "name": "7175bda05c63"
      },
      "type": "Feature"
    },
    {
      "geometry": {
        "coordinates": [
          -122.977468,
          49.263368
        ],
        "type": "Point"
      },
      "properties": {
        "address": "6150 Lougheed Highway, Unit C, Burnaby, BC V5B 2Z9",
        "name": "dda9f3279e58"
      },
      "type": "Feature"
    },
    {
      "geometry": {
        "coordinates": [
          -0.486388,
          51.547778
        ],
        "type": "Point"
      },
      "properties": {
        "address": "3 Highbridge, Oxford Road, Uxbridge, UB8 1LX",
        "name": "332c3a0d916b"
      },
      "type": "Feature"
    },
    {
      "geometry": {
        "coordinates": [
          -3.101991,
          51.50683
        ],
        "type": "Point"
      },
      "properties": {
        "address": "Room E105, Pinewood Studio Wales Wentloog Environmental Centre, Wentloog Avenue, Cardiff, CF3 2GH",
        "name": "842c3e7a0931"
      },
      "type": "Feature"
    },
    {
      "geometry": {
        "coordinates": [
          16.33017,
          48.169473
        ],
        "type": "Point"
      },
      "properties": {
        "address": "Pottendorfer Str. 23-25, 1120 Wien",
        "name": "28f49d5e7cee"
      },
      "type": "Feature"
    },
    {
      "geometry": {
        "coordinates": [
          14.277865,
          50.058303
        ],
        "type": "Point"
      },
      "properties": {
        "address": "Na Radosti 420, Building 5 15521 Prague 5, Zlicín",
        "name": "c3b6a0d2b72b"
      },
      "type": "Feature"
    },
    {
      "geometry": {
        "coordinates": [
          19.138663,
          47.581468
        ],
        "type": "Point"
      },
      "properties": {
        "address": "Magyarországi Fióktelepe, Felsőkert utca. 6, 1151 Budapest",
        "name": "8e29bec82812"
      },
      "type": "Feature"
    },
    {
      "geometry": {
        "coordinates": [
          13.308266,
          52.530252
        ],
        "type": "Point"
      },
      "properties": {
        "address": "Gaußstraße 17 10589 Berlin",
        "name": "24cb3389db8a"
      },
      "type": "Feature"
    },
    {
      "geometry": {
        "coordinates": [
          11.661166,
          48.21162
        ],
        "type": "Point"
      },
      "properties": {
        "address": "Münchener Str. 101 85737 Ismaning",
        "name": "4153555ab211"
      },
      "type": "Feature"
    },
    {
      "geometry": {
        "coordinates": [
          12.383682,
          51.317978
        ],
        "type": "Point"
      },
      "properties": {
        "address": "Altenburger Str. 11 04275 Leipzig",
        "name": "dd146e23b8a0"
      },
      "type": "Feature"
    },
    {
      "geometry": {
        "coordinates": [
          6.924948,
          50.976547
        ],
        "type": "Point"
      },
      "properties": {
        "address": "Heinrich-Pesch-Straße 7 50739 Köln",
        "name": "2e1465f829bd"
      },
      "type": "Feature"
    },
    {
      "geometry": {
        "coordinates": [
          -73.950377,
          40.730597
        ],
        "type": "Point"
      },
      "properties": {
        "address": "236 Greenpoint Ave, Brooklyn, NY 11222",
        "name": "bb262791d9db"
      },
      "type": "Feature"
    },
    {
      "geometry": {
        "coordinates": [
          101.597863,
          3.165234
        ],
        "type": "Point"
      },
      "properties": {
        "address": "29, Jalan PJU 3/47, Sunway Damansara, 47810 Petaling Jaya, Selangor",
        "name": "0620f72171ee"
      },
      "type": "Feature"
    },
    {
      "geometry": {
        "coordinates": [
          -99.171434,
          19.376382
        ],
        "type": "Point"
      },
      "properties": {
        "address": "Miguel Laurent 211, Col del Valle, 03100 Ciudad de México, CDMX",
        "name": "f98955350649"
      },
      "type": "Feature"
    },
    {
      "geometry": {
        "coordinates": [
          16.300197,
          48.140595
        ],
        "type": "Point"
      },
      "properties": {
        "address": "Brunner Strasse 63/23, Halle 4N, 1230 Wien",
        "name": "897219ee42d1"
      },
      "type": "Feature"
    },
    {
      "geometry": {
        "coordinates": [
          2.404031,
          48.81189
        ],
        "type": "Point"
      },
      "properties": {
        "address": "39 Rue Maurice Gunsbourg 94200 Ivry-sur-Seine",
        "name": "8ec9414071a7"
      },
      "type": "Feature"
    },
    {
      "geometry": {
        "coordinates": [
          4.400205,
          50.864274
        ],
        "type": "Point"
      },
      "properties": {
        "address": "Rue Auguste De Boeck 68B, 1140 Evere",
        "name": "bb6098cb8ef0"
      },
      "type": "Feature"
    },
    {
      "geometry": {
        "coordinates": [
          -118.244199,
          34.115383
        ],
        "type": "Point"
      },
      "properties": {
        "address": "3039 Roswell St, Los Angeles, CA 90065",
        "name": "36d6ee9965a2"
      },
      "type": "Feature"
    },
    {
      "geometry": {
        "coordinates": [
          -95.586122,
          29.863762
        ],
        "type": "Point"
      },
      "properties": {
        "address": "11875 W Little York Rd Suite 1101, Houston, TX 77041",
        "name": "932c9d4b3151"
      },
      "type": "Feature"
    },
    {
      "geometry": {
        "coordinates": [
          -118.338953,
          34.025741
        ],
        "type": "Point"
      },
      "properties": {
        "address": "3921 W Jefferson Blvd, Los Angeles, CA 90016",
        "name": "e0d68ca716a9"
      },
      "type": "Feature"
    },
    {
      "geometry": {
        "coordinates": [
          -118.404674,
          33.984057
        ],
        "type": "Point"
      },
      "properties": {
        "address": "6700 S Centinela Ave, 2nd Floor, Culver City, CA 90230",
        "name": "a555d016e089"
      },
      "type": "Feature"
    },
    {
      "geometry": {
        "coordinates": [
          -85.703941,
          42.937011
        ],
        "type": "Point"
      },
      "properties": {
        "address": "1500 Whiting St SW, Wyoming, MI 49509",
        "name": "531a25dd23a8"
      },
      "type": "Feature"
    },
    {
      "geometry": {
        "coordinates": [
          -123.079153,
          49.271844
        ],
        "type": "Point"
      },
      "properties": {
        "address": "1193 Grant St, Vancouver, BC V6A 2J7",
        "name": "72512304c814"
      },
      "type": "Feature"
    },
    {
      "geometry": {
        "coordinates": [
          2.397506,
          48.902999
        ],
        "type": "Point"
      },
      "properties": {
        "address": "29 rue Cartier Bresson 93500 Pantin",
        "name": "9dbfcd1c03b4"
      },
      "type": "Feature"
    },
    {
      "geometry": {
        "coordinates": [
          -99.165736,
          19.418622
        ],
        "type": "Point"
      },
      "properties": {
        "address": "Roma, Colima 300, Roma Nte., Cuauhtémoc, 06700 Ciudad de México, CDMX",
        "name": "64a2766d1015"
      },
      "type": "Feature"
    },
    {
      "geometry": {
        "coordinates": [
          4.932784,
          52.336862
        ],
        "type": "Point"
      },
      "properties": {
        "address": "H.J.E. Wenckebachweg 135, 1096 AM Amsterdam",
        "name": "d97e595a82cb"
      },
      "type": "Feature"
    },
    {
      "geometry": {
        "coordinates": [
          -3.645347,
          40.535799
        ],
        "type": "Point"
      },
      "properties": {
        "address": "Calle de Sta. Isabel, 13, 28108 Alcobendas, Madrid",
        "name": "87be9b94010a"
      },
      "type": "Feature"
    },
    {
      "geometry": {
        "coordinates": [
          4.932647,
          52.337959
        ],
        "type": "Point"
      },
      "properties": {
        "address": "Duivendrechtsekade 65, 1096 AH Amsterdam",
        "name": "70e22ccebda6"
      },
      "type": "Feature"
    },
    {
      "geometry": {
        "coordinates": [
          4.448897,
          50.923393
        ],
        "type": "Point"
      },
      "properties": {
        "address": "Leuvensesteenweg 248 Fb, 1800 Vilvoorde",
        "name": "6c4dcb9dc8f8"
      },
      "type": "Feature"
    },
    {
      "geometry": {
        "coordinates": [
          13.364501,
          52.478033
        ],
        "type": "Point"
      },
      "properties": {
        "address": "Wilhelm-Kabus-Straße 77, 10829 Berlin",
        "name": "0e4ffb9336b9"
      },
      "type": "Feature"
    },
    {
      "geometry": {
        "coordinates": [
          151.262519,
          -33.766
        ],
        "type": "Point"
      },
      "properties": {
        "address": "8/111 Old Pittwater Road, Brookvale NSW 2100",
        "name": "0cc265b081d1"
      },
      "type": "Feature"
    },
    {
      "geometry": {
        "coordinates": [
          151.199895,
          -33.904043
        ],
        "type": "Point"
      },
      "properties": {
        "address": "Workit Spaces, B1/13-21 Mandible St, Alexandria NSW 2015",
        "name": "a32031463fad"
      },
      "type": "Feature"
    },
    {
      "geometry": {
        "coordinates": [
          -95.357259,
          29.768595
        ],
        "type": "Point"
      },
      "properties": {
        "address": "1113 Vine St Houston, TX 77002",
        "name": "708814bd49d1"
      },
      "type": "Feature"
    },
    {
      "geometry": {
        "coordinates": [
          -3.522128,
          40.336303
        ],
        "type": "Point"
      },
      "properties": {
        "address": "Calle Severo Ochoa, 15, Nave 5, 28521 Rivas-Vaciamadrid, Madrid",
        "name": "06089c033094"
      },
      "type": "Feature"
    },
    {
      "geometry": {
        "coordinates": [
          2.255442,
          41.464778
        ],
        "type": "Point"
      },
      "properties": {
        "address": "Torrent de Vallmajor, 94C, Nave 4 Badalona, 08915 Barcelona",
        "name": "fa564265e16b"
      },
      "type": "Feature"
    },
    {
      "geometry": {
        "coordinates": [
          10.759063,
          59.933542
        ],
        "type": "Point"
      },
      "properties": {
        "address": "Marcus Thranes Gate 4C, 0473 Oslo",
        "name": "b35e26727869"
      },
      "type": "Feature"
    },
    {
      "geometry": {
        "coordinates": [
          18.051485,
          59.33766
        ],
        "type": "Point"
      },
      "properties": {
        "address": "Västmannagatan 17, 113 25 Stockholm",
        "name": "6e9ebde7a5d0"
      },
      "type": "Feature"
    },
    {
      "geometry": {
        "coordinates": [
          18.040587,
          59.347335
        ],
        "type": "Point"
      },
      "properties": {
        "address": "Sankt Eriksgatan 128, 113 43 Stockholm",
        "name": "ebc07377100e"
      },
      "type": "Feature"
    },
    {
      "geometry": {
        "coordinates": [
          9.201968,
          45.505201
        ],
        "type": "Point"
      },
      "properties": {
        "address": "Via Vincenzo Rabolini, 4, 20125 Milano MI",
        "name": "8b7f5603360c"
      },
      "type": "Feature"
    },
    {
      "geometry": {
        "coordinates": [
          12.497595,
          41.853021
        ],
        "type": "Point"
      },
      "properties": {
        "address": "Viale Tor Marancia, 68, 00147 Roma RM",
        "name": "f6ebe8a4bcac"
      },
      "type": "Feature"
    },
    {
      "geometry": {
        "coordinates": [
          4.932151,
          52.337589
        ],
        "type": "Point"
      },
      "properties": {
        "address": "Duivendrechtsekade 72, 1096 AH Amsterdam",
        "name": "521a3ff6e16f"
      },
      "type": "Feature"
    },
    {
      "geometry": {
        "coordinates": [
          -0.078065,
          51.524828
        ],
        "type": "Point"
      },
      "properties": {
        "address": "14 Anning St, Hackney, London EC2A 3HB",
        "name": "5212215e0497"
      },
      "type": "Feature"
    },
    {
      "geometry": {
        "coordinates": [
          -118.352973,
          34.166262
        ],
        "type": "Point"
      },
      "properties": {
        "address": "4221 W Magnolia Blvd, Burbank, CA 91505",
        "name": "62fe51d55f06"
      },
      "type": "Feature"
    },
    {
      "geometry": {
        "coordinates": [
          -84.194462,
          33.913756
        ],
        "type": "Point"
      },
      "properties": {
        "address": "1600 Oakbrook Dr #520, Norcross, GA 30093",
        "name": "634910efc062"
      },
      "type": "Feature"
    },
    {
      "geometry": {
        "coordinates": [
          4.295045,
          51.486981
        ],
        "type": "Point"
      },
      "properties": {
        "address": "Van Aldegondebaan 7, 4615 AZ Bergen op Zoom",
        "name": "6daf153b4348"
      },
      "type": "Feature"
    },
    {
      "geometry": {
        "coordinates": [
          -77.167221,
          38.797899
        ],
        "type": "Point"
      },
      "properties": {
        "address": "5706-F General Washington Dr. Alexandria, VA 22312",
        "name": "00767c4a3faf"
      },
      "type": "Feature"
    },
    {
      "geometry": {
        "coordinates": [
          -57.55688,
          -25.289613
        ],
        "type": "Point"
      },
      "properties": {
        "address": "Bruselas 2865, Asunción",
        "name": "920944ce657d"
      },
      "type": "Feature"
    },
    {
      "geometry": {
        "coordinates": [
          -76.680477,
          39.258078
        ],
        "type": "Point"
      },
      "properties": {
        "address": "202 Azar Ct, Baltimore, MD 21227",
        "name": "3a5c51c61573"
      },
      "type": "Feature"
    },
    {
      "geometry": {
        "coordinates": [
          -122.298005,
          37.878883
        ],
        "type": "Point"
      },
      "properties": {
        "address": "1336 Ninth St, Berkeley, CA 94710",
        "name": "588478b45c4e"
      },
      "type": "Feature"
    },
    {
      "geometry": {
        "coordinates": [
          -46.740218,
          -23.527171
        ],
        "type": "Point"
      },
      "properties": {
        "address": "Rua Senador Joaquim Ribeiro do Valle, 340, Galpão 3A - Vila Leopoldina, São Paulo - SP, 05311-010",
        "name": "3fb940599b9c"
      },
      "type": "Feature"
    },
    {
      "geometry": {
        "coordinates": [
          2.352063,
          48.824689
        ],
        "type": "Point"
      },
      "properties": {
        "address": "11 bis rue Charles Fourier 75013 Paris",
        "name": "6c8f06403ecb"
      },
      "type": "Feature"
    },
    {
      "geometry": {
        "coordinates": [
          2.386371,
          48.859942
        ],
        "type": "Point"
      },
      "properties": {
        "address": "Unknow",
        "name": "a87c29684958"
      },
      "type": "Feature"
    },
    {
      "geometry": {
        "coordinates": [
          3.869342,
          43.602913
        ],
        "type": "Point"
      },
      "properties": {
        "address": "16 rue Bourrely 34000 Montpellier",
        "name": "f6df44933bae"
      },
      "type": "Feature"
    },
    {
      "geometry": {
        "coordinates": [
          -118.347472,
          34.025352
        ],
        "type": "Point"
      },
      "properties": {
        "address": "4700 W Jefferson Blvd, Ste 102, Los Angeles, CA 90016",
        "name": "05c24cc3e218"
      },
      "type": "Feature"
    },
    {
      "geometry": {
        "coordinates": [
          12.241948,
          45.464348
        ],
        "type": "Point"
      },
      "properties": {
        "address": "Via dell' Azoto, 4, 30175 Venezia VE",
        "name": "e7fee932a372"
      },
      "type": "Feature"
    },
    {
      "geometry": {
        "coordinates": [
          -74.115965,
          4.663154
        ],
        "type": "Point"
      },
      "properties": {
        "address": "Cra. 72a No. 24-72, Bogotá",
        "name": "2e07d94b6b8e"
      },
      "type": "Feature"
    },
    {
      "geometry": {
        "coordinates": [
          -93.358381,
          44.987905
        ],
        "type": "Point"
      },
      "properties": {
        "address": "6158 Olson Memorial Hwy, Golden Valley, MN 55422",
        "name": "483d2ee02887"
      },
      "type": "Feature"
    },
    {
      "geometry": {
        "coordinates": [
          116.657976,
          40.172038
        ],
        "type": "Point"
      },
      "properties": {
        "address": "#62 báimǎ lù, Mapo Town, Shunyi District",
        "name": "2c9a0ffdaa6e"
      },
      "type": "Feature"
    },
    {
      "geometry": {
        "coordinates": [
          7.406475,
          51.507698
        ],
        "type": "Point"
      },
      "properties": {
        "address": "Iggelhorst 17, 44149 Dortmund",
        "name": "eb822849168b"
      },
      "type": "Feature"
    },
    {
      "geometry": {
        "coordinates": [
          24.807114,
          59.425535
        ],
        "type": "Point"
      },
      "properties": {
        "address": "Peterburi tee 34/4, 13520 Tallinn",
        "name": "984f863716d7"
      },
      "type": "Feature"
    },
    {
      "geometry": {
        "coordinates": [
          114.177553,
          22.327979
        ],
        "type": "Point"
      },
      "properties": {
        "address": "7 Cumberland Rd, Kowloon Tong",
        "name": "10e44bd88a7f"
      },
      "type": "Feature"
    },
    {
      "geometry": {
        "coordinates": [
          116.36157,
          40.062102
        ],
        "type": "Point"
      },
      "properties": {
        "address": "Xi San Qi, Hai Dian Qu,Beijing, China Beijing",
        "name": "55e7e7f21503"
      },
      "type": "Feature"
    },
    {
      "geometry": {
        "coordinates": [
          113.340867,
          23.070058
        ],
        "type": "Point"
      },
      "properties": {
        "address": "No. 5 Hua Tai Road, Hua Zhou Street, Hai Zhu District, Guangzhou",
        "name": "3c824a254196"
      },
      "type": "Feature"
    },
    {
      "geometry": {
        "coordinates": [
          121.410397,
          31.109432
        ],
        "type": "Point"
      },
      "properties": {
        "address": "Unit 8, No.2328 Chunshen Road, Minhang District, Shanghai",
        "name": "44637fc15e08"
      },
      "type": "Feature"
    },
    {
      "geometry": {
        "coordinates": [
          121.059695,
          14.575126
        ],
        "type": "Point"
      },
      "properties": {
        "address": "4 2nd St, Pasig, Metro Manila",
        "name": "5dea7105fff1"
      },
      "type": "Feature"
    },
    {
      "geometry": {
        "coordinates": [
          100.595335,
          13.717356
        ],
        "type": "Point"
      },
      "properties": {
        "address": "165 Sukhumvit 71 Road,  Prakanong Nua, Wattana,  Bangkok 10110",
        "name": "9e4fd9806f2f"
      },
      "type": "Feature"
    },
    {
      "geometry": {
        "coordinates": [
          101.6169,
          3.200502
        ],
        "type": "Point"
      },
      "properties": {
        "address": "17, Jalan Tembaga SD 5/2, Bandar Sri Damansara, 52200 Kuala Lumpur, Selangor",
        "name": "0b5e72235bf4"
      },
      "type": "Feature"
    },
    {
      "geometry": {
        "coordinates": [
          7.312576,
          48.336328
        ],
        "type": "Point"
      },
      "properties": {
        "address": "6 rue de Villé 67220 Neuve-Eglise",
        "name": "199997c7be8c"
      },
      "type": "Feature"
    },
    {
      "geometry": {
        "coordinates": [
          -81.662792,
          41.515343
        ],
        "type": "Point"
      },
      "properties": {
        "address": "1419 E 40th St, Cleveland, OH 44103",
        "name": "00c7da2364dc"
      },
      "type": "Feature"
    },
    {
      "geometry": {
        "coordinates": [
          -70.697338,
          -33.369259
        ],
        "type": "Point"
      },
      "properties": {
        "address": "Av. Pdte. Eduardo Frei Montalva 6001, Conchalí",
        "name": "aa85f939986c"
      },
      "type": "Feature"
    },
    {
      "geometry": {
        "coordinates": [
          -74.076554,
          4.683467
        ],
        "type": "Point"
      },
      "properties": {
        "address": "Cra. 65 #81-58, Bogotá",
        "name": "3c7da39596d7"
      },
      "type": "Feature"
    },
    {
      "geometry": {
        "coordinates": [
          -118.36077,
          34.174725
        ],
        "type": "Point"
      },
      "properties": {
        "address": "5723 Auckland Ave, North Hollywood, CA 91601",
        "name": "c16380a4ad6e"
      },
      "type": "Feature"
    },
    {
      "geometry": {
        "coordinates": [
          2.337563,
          48.891004
        ],
        "type": "Point"
      },
      "properties": {
        "address": "7-9 rue des Cottages 75018 Paris",
        "name": "bdb3a5967bb8"
      },
      "type": "Feature"
    },
    {
      "geometry": {
        "coordinates": [
          -118.258013,
          34.121054
        ],
        "type": "Point"
      },
      "properties": {
        "address": "3603 Seneca Ave #3, Los Angeles, CA 90039",
        "name": "ef64f0906522"
      },
      "type": "Feature"
    },
    {
      "geometry": {
        "coordinates": [
          11.99339,
          57.74555
        ],
        "type": "Point"
      },
      "properties": {
        "address": "Exportgatan 38D, 422 46 Hisings Backa",
        "name": "f17b18822117"
      },
      "type": "Feature"
    },
    {
      "geometry": {
        "coordinates": [
          18.05361,
          59.25973
        ],
        "type": "Point"
      },
      "properties": {
        "address": "Harpsundsvägen 199-201, 124 59 Bandhagen",
        "name": "72eb880975d3"
      },
      "type": "Feature"
    },
    {
      "geometry": {
        "coordinates": [
          21.7163,
          65.83795
        ],
        "type": "Point"
      },
      "properties": {
        "address": "Moråsvägen 5, 961 67 Boden",
        "name": "9bb75c7096e3"
      },
      "type": "Feature"
    },
    {
      "geometry": {
        "coordinates": [
          13.360058,
          52.504357
        ],
        "type": "Point"
      },
      "properties": {
        "address": "Lützowstraße 33, 10785 Berlin",
        "name": "38913364b74c"
      },
      "type": "Feature"
    },
    {
      "geometry": {
        "coordinates": [
          16.356581,
          48.194551
        ],
        "type": "Point"
      },
      "properties": {
        "address": "Rüdigergasse 16, 1050 Wien",
        "name": "7c85e23b6813"
      },
      "type": "Feature"
    },
    {
      "geometry": {
        "coordinates": [
          -123.339273,
          48.429977
        ],
        "type": "Point"
      },
      "properties": {
        "address": "Vining Street, 1900 Belmont Ave, Victoria, BC V8R 3Z4",
        "name": "0c749b77659e"
      },
      "type": "Feature"
    },
    {
      "geometry": {
        "coordinates": [
          2.367685,
          48.895513
        ],
        "type": "Point"
      },
      "properties": {
        "address": "189 Rue d'Aubervilliers CAP 18 - Unit A53/55 75018 Paris",
        "name": "5b5bbc68fc33"
      },
      "type": "Feature"
    },
    {
      "geometry": {
        "coordinates": [
          -0.114947,
          51.497515
        ],
        "type": "Point"
      },
      "properties": {
        "address": "200-202 Hercules Road, Waterloo, London SE1 7LD",
        "name": "34ae95680967"
      },
      "type": "Feature"
    },
    {
      "geometry": {
        "coordinates": [
          -2.197976,
          53.470294
        ],
        "type": "Point"
      },
      "properties": {
        "address": "3F, Space Studios, Vaughan St, Manchester M12 5FQ",
        "name": "518152a4695e"
      },
      "type": "Feature"
    },
    {
      "geometry": {
        "coordinates": [
          18.510324,
          -33.866662
        ],
        "type": "Point"
      },
      "properties": {
        "address": "Cape Island Studios, 3 Sanlam Business Park, Koeberg Road, Milnerton, Cape Town, 7435",
        "name": "7d5b06ac3af5"
      },
      "type": "Feature"
    },
    {
      "geometry": {
        "coordinates": [
          -73.994171,
          40.748667
        ],
        "type": "Point"
      },
      "properties": {
        "address": "231 W 29th St Suite 210, New York, NY 10001",
        "name": "f6e9e205b3eb"
      },
      "type": "Feature"
    },
    {
      "geometry": {
        "coordinates": [
          -46.729167,
          -23.533988
        ],
        "type": "Point"
      },
      "properties": {
        "address": "Rua Heliópolis, 75 - Vila Hamburguesa, São Paulo - SP, 05318-010",
        "name": "b45015d6e539"
      },
      "type": "Feature"
    },
    {
      "geometry": {
        "coordinates": [
          2.341064,
          48.928512
        ],
        "type": "Point"
      },
      "properties": {
        "address": "6 boulevard de la Libération 93200 Saint-Denis",
        "name": "a1fa3e413d49"
      },
      "type": "Feature"
    },
    {
      "geometry": {
        "coordinates": [
          16.338198,
          48.137301
        ],
        "type": "Point"
      },
      "properties": {
        "address": "Slamastrasse 43, 1230 Wien",
        "name": "f118a13ebf25"
      },
      "type": "Feature"
    },
    {
      "geometry": {
        "coordinates": [
          -118.259184,
          34.08651
        ],
        "type": "Point"
      },
      "properties": {
        "address": "2122 Aaron St, Los Angeles, CA 90026",
        "name": "710cf514b369"
      },
      "type": "Feature"
    },
    {
      "geometry": {
        "coordinates": [
          -3.628329,
          40.433836
        ],
        "type": "Point"
      },
      "properties": {
        "address": "Calle Sta. Leonor, 61, 1º Piso - Oficina 2, 28037 Madrid",
        "name": "6c4b479b072d"
      },
      "type": "Feature"
    },
    {
      "geometry": {
        "coordinates": [
          -0.666364,
          44.779536
        ],
        "type": "Point"
      },
      "properties": {
        "address": "16 avenue Claude Chappe 33600 Pessac",
        "name": "3b4e9a2d16c1"
      },
      "type": "Feature"
    },
    {
      "geometry": {
        "coordinates": [
          4.44592,
          50.89177
        ],
        "type": "Point"
      },
      "properties": {
        "address": "Woluwelaan 141C, 1831 Machelen",
        "name": "f92978ffa2f2"
      },
      "type": "Feature"
    },
    {
      "geometry": {
        "coordinates": [
          2.396877,
          48.922678
        ],
        "type": "Point"
      },
      "properties": {
        "address": "32 rue Raspail 93120 La Courneuve",
        "name": "147a50870fde"
      },
      "type": "Feature"
    },
    {
      "geometry": {
        "coordinates": [
          6.118202,
          49.603442
        ],
        "type": "Point"
      },
      "properties": {
        "address": "6 place de Nancy 1544 Luxembourg",
        "name": "37fd166c87c4"
      },
      "type": "Feature"
    },
    {
      "geometry": {
        "coordinates": [
          7.740181,
          48.561282
        ],
        "type": "Point"
      },
      "properties": {
        "address": "33 rue du Maréchal Lefebvre 67100 Strasbourg",
        "name": "d9e2c029b8b5"
      },
      "type": "Feature"
    },
    {
      "geometry": {
        "coordinates": [
          6.138921,
          46.190231
        ],
        "type": "Point"
      },
      "properties": {
        "address": "Rue Simon-Durand 11, 1227 Genève",
        "name": "72e44dacd8c4"
      },
      "type": "Feature"
    },
    {
      "geometry": {
        "coordinates": [
          1.474391,
          43.637721
        ],
        "type": "Point"
      },
      "properties": {
        "address": "9 impasse Léonce Couture 31200 Toulouse",
        "name": "e2b11bc3e059"
      },
      "type": "Feature"
    },
    {
      "geometry": {
        "coordinates": [
          13.29054,
          52.498089
        ],
        "type": "Point"
      },
      "properties": {
        "address": "Georg-Wilhelm-Straße 2 10711 Berlin",
        "name": "1b9956bf6686"
      },
      "type": "Feature"
    },
    {
      "geometry": {
        "coordinates": [
          11.599637,
          48.106989
        ],
        "type": "Point"
      },
      "properties": {
        "address": "Aschauer Str. 8 81549 München",
        "name": "7078c632f8f0"
      },
      "type": "Feature"
    },
    {
      "geometry": {
        "coordinates": [
          29.00796,
          41.07001
        ],
        "type": "Point"
      },
      "properties": {
        "address": "Esentepe, Gazeteciler Sit. Dergiler Sk. No:3, 34360 Şişli/İstanbul",
        "name": "414ffd459d1b"
      },
      "type": "Feature"
    },
    {
      "geometry": {
        "coordinates": [
          55.18777,
          25.02992
        ],
        "type": "Point"
      },
      "properties": {
        "address": "Warehouse B34, International Media Production Zone, Dubai",
        "name": "890e10bef01f"
      },
      "type": "Feature"
    },
    {
      "geometry": {
        "coordinates": [
          54.524434,
          24.321743
        ],
        "type": "Point"
      },
      "properties": {
        "address": "TwoFour54, Studios Musaffah, Abu Dhabi",
        "name": "5a130bb1407d"
      },
      "type": "Feature"
    },
    {
      "geometry": {
        "coordinates": [
          77.196343,
          28.524582
        ],
        "type": "Point"
      },
      "properties": {
        "address": "M-212, Himmat Singh Marg, Nai Basti, Lado Sarai, New Delhi, Delhi 110030",
        "name": "8010dcd878a4"
      },
      "type": "Feature"
    },
    {
      "geometry": {
        "coordinates": [
          101.590275,
          3.114694
        ],
        "type": "Point"
      },
      "properties": {
        "address": "B-G-07 Block C Pusat Dagangan NZX, Jalan PJU 1A/41B, Ara Damansara, 47301 Petaling Jaya, Selangor",
        "name": "9e1db9ba85d8"
      },
      "type": "Feature"
    },
    {
      "geometry": {
        "coordinates": [
          -61.568992,
          6.240019
        ],
        "type": "Point"
      },
      "properties": {
        "address": "ZI Jarry, Immeuble Orlando, Baie-Mahault 97122, Guadeloupe",
        "name": "adb014324f64"
      },
      "type": "Feature"
    },
    {
      "geometry": {
        "coordinates": [
          2.338833,
          48.841164
        ],
        "type": "Point"
      },
      "properties": {
        "address": "29 bis Rue Henri Barbusse 75005 Paris",
        "name": "d79fc214a6bb"
      },
      "type": "Feature"
    },
    {
      "geometry": {
        "coordinates": [
          -97.702027,
          30.252194
        ],
        "type": "Point"
      },
      "properties": {
        "address": "4822 E Cesar Chavez St, Austin, TX 78702",
        "name": "e94d92671329"
      },
      "type": "Feature"
    },
    {
      "geometry": {
        "coordinates": [
          -3.612481,
          40.551102
        ],
        "type": "Point"
      },
      "properties": {
        "address": "Av. de los Montes de Oca, 20, Nave 3, 28703 San Sebastián de los Reyes, Madrid",
        "name": "850a168a0bcf"
      },
      "type": "Feature"
    },
    {
      "geometry": {
        "coordinates": [
          -118.352488,
          34.025187
        ],
        "type": "Point"
      },
      "properties": {
        "address": "5009 Exposition Blvd, Los Angeles, CA 90016",
        "name": "16ade880a41c"
      },
      "type": "Feature"
    },
    {
      "geometry": {
        "coordinates": [
          -118.360829,
          34.205084
        ],
        "type": "Point"
      },
      "properties": {
        "address": "3100 N Damon Way, Burbank, CA 91505",
        "name": "dbe0465b5482"
      },
      "type": "Feature"
    },
    {
      "geometry": {
        "coordinates": [
          55.224254,
          25.14028
        ],
        "type": "Point"
      },
      "properties": {
        "address": "6A St, Al Quoz, Dubai",
        "name": "3a0b0b9af1e4"
      },
      "type": "Feature"
    },
    {
      "geometry": {
        "coordinates": [
          55.238652,
          25.166093
        ],
        "type": "Point"
      },
      "properties": {
        "address": "Dubai Studio City, Al Quoz 3, Dubai",
        "name": "0767d1f3b9aa"
      },
      "type": "Feature"
    },
    {
      "geometry": {
        "coordinates": [
          4.891698,
          45.769279
        ],
        "type": "Point"
      },
      "properties": {
        "address": "254 rue F. Pressensé Bât 5 69100 Villeurbanne",
        "name": "88ada5211710"
      },
      "type": "Feature"
    },
    {
      "geometry": {
        "coordinates": [
          2.248656,
          48.836781
        ],
        "type": "Point"
      },
      "properties": {
        "address": "47 bis Rue Thiers, 92100 Boulogne-Billancourt",
        "name": "b00663cc9ac5"
      },
      "type": "Feature"
    },
    {
      "geometry": {
        "coordinates": [
          -70.679941,
          -33.361892
        ],
        "type": "Point"
      },
      "properties": {
        "address": "Calle Nva 1757, Huechuraba, Santiago",
        "name": "b01acce5b1c7"
      },
      "type": "Feature"
    },
    {
      "geometry": {
        "coordinates": [
          -74.006706,
          40.654239
        ],
        "type": "Point"
      },
      "properties": {
        "address": "325 38th St, Brooklyn, NY 11232",
        "name": "d91bf134c360"
      },
      "type": "Feature"
    },
    {
      "geometry": {
        "coordinates": [
          10.766061,
          59.953019
        ],
        "type": "Point"
      },
      "properties": {
        "address": "Gjerdrumsvei 6, N-0484 Oslo",
        "name": "0045daaef297"
      },
      "type": "Feature"
    },
    {
      "geometry": {
        "coordinates": [
          12.550499,
          55.700114
        ],
        "type": "Point"
      },
      "properties": {
        "address": "Rådmandsgade 37-39, 2200 København",
        "name": "d494c3ec5ec6"
      },
      "type": "Feature"
    },
    {
      "geometry": {
        "coordinates": [
          12.006327,
          57.726143
        ],
        "type": "Point"
      },
      "properties": {
        "address": "Gamlestadsvägen 4 - B2, 415 02, Göteborg",
        "name": "0313bb1a6d7c"
      },
      "type": "Feature"
    },
    {
      "geometry": {
        "coordinates": [
          25.047167,
          60.210434
        ],
        "type": "Point"
      },
      "properties": {
        "address": "Laippatie 14, 00880 Helsinki",
        "name": "200f0b005931"
      },
      "type": "Feature"
    },
    {
      "geometry": {
        "coordinates": [
          11.652588,
          48.190277
        ],
        "type": "Point"
      },
      "properties": {
        "address": "Dieselstraße 3 85774 Unterföhring",
        "name": "a5e9464d52a2"
      },
      "type": "Feature"
    },
    {
      "geometry": {
        "coordinates": [
          -118.374794,
          34.030356
        ],
        "type": "Point"
      },
      "properties": {
        "address": "5900 Blackwelder St, Culver City, CA 90232",
        "name": "41178904b796"
      },
      "type": "Feature"
    },
    {
      "geometry": {
        "coordinates": [
          -87.690977,
          41.859694
        ],
        "type": "Point"
      },
      "properties": {
        "address": "2602 W 16th St 2nd floor, Chicago, IL 60608",
        "name": "4a4467587f4f"
      },
      "type": "Feature"
    },
    {
      "geometry": {
        "coordinates": [
          -90.181861,
          29.944503
        ],
        "type": "Point"
      },
      "properties": {
        "address": "201 Evans Rd Suite 303, Harahan, LA 70123",
        "name": "52943311d8f6"
      },
      "type": "Feature"
    },
    {
      "geometry": {
        "coordinates": [
          -111.914311,
          40.73026
        ],
        "type": "Point"
      },
      "properties": {
        "address": "812 W Layton Ave, Suite A, Salt Lake City, UT 84104",
        "name": "3260134a7e4b"
      },
      "type": "Feature"
    },
    {
      "geometry": {
        "coordinates": [
          -84.405459,
          33.769862
        ],
        "type": "Point"
      },
      "properties": {
        "address": "554 N Ave NW Suite A, Atlanta, GA 30318",
        "name": "9ea79a65f618"
      },
      "type": "Feature"
    },
    {
      "geometry": {
        "coordinates": [
          -106.655433,
          35.10089
        ],
        "type": "Point"
      },
      "properties": {
        "address": "815 Bellamah Ave NW, Albuquerque, NM 87102",
        "name": "260f4483b6ca"
      },
      "type": "Feature"
    },
    {
      "geometry": {
        "coordinates": [
          -123.039614,
          49.312877
        ],
        "type": "Point"
      },
      "properties": {
        "address": "1225 Keith Rd E #2, North Vancouver, BC V7J 1J3",
        "name": "239349944ff5"
      },
      "type": "Feature"
    },
    {
      "geometry": {
        "coordinates": [
          -79.351468,
          43.704098
        ],
        "type": "Point"
      },
      "properties": {
        "address": "16 Overlea Blvd, Toronto, ON M4H 1A4",
        "name": "b5dafb7118ab"
      },
      "type": "Feature"
    },
    {
      "geometry": {
        "coordinates": [
          4.399744,
          50.863841
        ],
        "type": "Point"
      },
      "properties": {
        "address": "Boulevard Général Wahis 16F, 1030 Bruxelles",
        "name": "e5c07a481b7c"
      },
      "type": "Feature"
    },
    {
      "geometry": {
        "coordinates": [
          25.277136,
          54.671954
        ],
        "type": "Point"
      },
      "properties": {
        "address": "Mindaugo st. 42A, Vilnius 01311",
        "name": "d43e679e7fa6"
      },
      "type": "Feature"
    },
    {
      "geometry": {
        "coordinates": [
          24.925585,
          60.15247
        ],
        "type": "Point"
      },
      "properties": {
        "address": "Henry Fordin katu 6F, 00150 Helsinki",
        "name": "0ab53984d527"
      },
      "type": "Feature"
    },
    {
      "geometry": {
        "coordinates": [
          -122.651391,
          45.502329
        ],
        "type": "Point"
      },
      "properties": {
        "address": "2828 SE 14th Ave, Portland, OR 97202",
        "name": "e0f9cf2b6c86"
      },
      "type": "Feature"
    },
    {
      "geometry": {
        "coordinates": [
          -122.355411,
          47.648332
        ],
        "type": "Point"
      },
      "properties": {
        "address": "101 Nickerson St, Seattle, WA 98109",
        "name": "db8a9a9136a2"
      },
      "type": "Feature"
    },
    {
      "geometry": {
        "coordinates": [
          10.759066,
          59.934601
        ],
        "type": "Point"
      },
      "properties": {
        "address": "Sandakerveien 24C, Bygg C3, 0473 Oslo",
        "name": "83f6e023daac"
      },
      "type": "Feature"
    },
    {
      "geometry": {
        "coordinates": [
          -21.810742,
          64.152777
        ],
        "type": "Point"
      },
      "properties": {
        "address": "Jöfursbás 4, 112 Reykjavík",
        "name": "43f7646eb52f"
      },
      "type": "Feature"
    },
    {
      "geometry": {
        "coordinates": [
          5.367509,
          43.301446
        ],
        "type": "Point"
      },
      "properties": {
        "address": "2 Place Francis Chirat 13002 Marseille",
        "name": "1fc00ccc3b38"
      },
      "type": "Feature"
    },
    {
      "geometry": {
        "coordinates": [
          -118.386023,
          34.02631
        ],
        "type": "Point"
      },
      "properties": {
        "address": "3975 Landmark St #700, Culver City, CA 90232",
        "name": 455920988285
      },
      "type": "Feature"
    },
    {
      "geometry": {
        "coordinates": [
          -75.187233,
          39.911183
        ],
        "type": "Point"
      },
      "properties": {
        "address": "2239 Hartranft St, Philadelphia, PA 19145",
        "name": "4dd3b51e8bed"
      },
      "type": "Feature"
    },
    {
      "geometry": {
        "coordinates": [
          4.446491,
          50.948609
        ],
        "type": "Point"
      },
      "properties": {
        "address": "Fabriekstraat 81, 1800 Vilvoorde",
        "name": "3b9a62063c6a"
      },
      "type": "Feature"
    },
    {
      "geometry": {
        "coordinates": [
          4.867009,
          52.394841
        ],
        "type": "Point"
      },
      "properties": {
        "address": "Nieuwe Hemweg 5B, 1013 BG Amsterdam",
        "name": "1a5778e64a63"
      },
      "type": "Feature"
    },
    {
      "geometry": {
        "coordinates": [
          11.99934,
          57.748
        ],
        "type": "Point"
      },
      "properties": {
        "address": "Backa Bergögata 12A, 422 46 Hisings Backa",
        "name": "111cd782b58e"
      },
      "type": "Feature"
    },
    {
      "geometry": {
        "coordinates": [
          18.11678,
          59.34384
        ],
        "type": "Point"
      },
      "properties": {
        "address": "Voltavägen 9, 168 69 Bromma",
        "name": "08e9a5b2a7c6"
      },
      "type": "Feature"
    },
    {
      "geometry": {
        "coordinates": [
          2.349635,
          48.882127
        ],
        "type": "Point"
      },
      "properties": {
        "address": "173 rue du Faubourg Poissonnière 75009 Paris",
        "name": "64b5be7cacb1"
      },
      "type": "Feature"
    },
    {
      "geometry": {
        "coordinates": [
          -118.324996,
          34.091676
        ],
        "type": "Point"
      },
      "properties": {
        "address": "6212 Banner Ave, Los Angeles, CA 90038",
        "name": "18b5cc7f4034"
      },
      "type": "Feature"
    },
    {
      "geometry": {
        "coordinates": [
          -0.568347,
          47.489444
        ],
        "type": "Point"
      },
      "properties": {
        "address": "42 rue du Général Lizé 49100 Angers",
        "name": "3936afa39301"
      },
      "type": "Feature"
    },
    {
      "geometry": {
        "coordinates": [
          13.421358,
          52.457077
        ],
        "type": "Point"
      },
      "properties": {
        "address": "Bergholzstraße 1-4 12099 Berlin",
        "name": "0553364516d8"
      },
      "type": "Feature"
    },
    {
      "geometry": {
        "coordinates": [
          11.66855,
          48.124449
        ],
        "type": "Point"
      },
      "properties": {
        "address": "Lehrer-Götz-Weg 17 81825 München",
        "name": "e02b7debefb4"
      },
      "type": "Feature"
    },
    {
      "geometry": {
        "coordinates": [
          12.329598,
          51.328136
        ],
        "type": "Point"
      },
      "properties": {
        "address": "Industriestraße 95 04229 Leipzig",
        "name": "7744dd903d4f"
      },
      "type": "Feature"
    },
    {
      "geometry": {
        "coordinates": [
          6.886943,
          50.942863
        ],
        "type": "Point"
      },
      "properties": {
        "address": "Stolberger Str. 366/Haus C 50933 Köln",
        "name": "b31bd404832c"
      },
      "type": "Feature"
    },
    {
      "geometry": {
        "coordinates": [
          9.915685,
          53.57644
        ],
        "type": "Point"
      },
      "properties": {
        "address": "Winsbergring 34 22525 Hamburg",
        "name": "e4b3e2aa1ffc"
      },
      "type": "Feature"
    },
    {
      "geometry": {
        "coordinates": [
          10.997936,
          50.961888
        ],
        "type": "Point"
      },
      "properties": {
        "address": "Erich-Kästner-Straße 1 99094 Erfurt",
        "name": "7f4a1765c956"
      },
      "type": "Feature"
    },
    {
      "geometry": {
        "coordinates": [
          10.021803,
          48.820661
        ],
        "type": "Point"
      },
      "properties": {
        "address": "Streichhoffeld 3 73457 Essingen",
        "name": "1c72b2f98050"
      },
      "type": "Feature"
    },
    {
      "geometry": {
        "coordinates": [
          12.59319,
          55.706944
        ],
        "type": "Point"
      },
      "properties": {
        "address": "Trelleborggade 9, 2150 København",
        "name": "7466f31af58e"
      },
      "type": "Feature"
    },
    {
      "geometry": {
        "coordinates": [
          10.213889,
          56.150703
        ],
        "type": "Point"
      },
      "properties": {
        "address": "Filmbyen 23, 8000 Aarhus",
        "name": "a45f1319cee1"
      },
      "type": "Feature"
    },
    {
      "geometry": {
        "coordinates": [
          10.449336,
          55.217731
        ],
        "type": "Point"
      },
      "properties": {
        "address": "Kokskovvej 28, 5750 Ringe",
        "name": "c46ad4e68423"
      },
      "type": "Feature"
    },
    {
      "geometry": {
        "coordinates": [
          2.376179,
          48.857633
        ],
        "type": "Point"
      },
      "properties": {
        "address": "54 rue Sedaine 75011 Paris",
        "name": "45eb2174a24b"
      },
      "type": "Feature"
    },
    {
      "geometry": {
        "coordinates": [
          8.584168,
          50.124468
        ],
        "type": "Point"
      },
      "properties": {
        "address": "Westerbachstraße 164, 65936 Frankfurt am Main",
        "name": "0da8adbd1cb6"
      },
      "type": "Feature"
    },
    {
      "geometry": {
        "coordinates": [
          -118.413235,
          34.00639
        ],
        "type": "Point"
      },
      "properties": {
        "address": "11222 Washington Blvd, Culver City, CA 90230",
        "name": "289e9cf074a7"
      },
      "type": "Feature"
    },
    {
      "geometry": {
        "coordinates": [
          9.291217,
          45.540702
        ],
        "type": "Point"
      },
      "properties": {
        "address": "Via Carlo Porta, 3, 20093 Cologno Monzese MI",
        "name": "a5b597061dd0"
      },
      "type": "Feature"
    },
    {
      "geometry": {
        "coordinates": [
          9.221597,
          45.446739
        ],
        "type": "Point"
      },
      "properties": {
        "address": "Via Giulio Verne, 1, 20137 Milano MI",
        "name": "a6bd9d05c7d9"
      },
      "type": "Feature"
    },
    {
      "geometry": {
        "coordinates": [
          -96.840017,
          32.985665
        ],
        "type": "Point"
      },
      "properties": {
        "address": "3328 Waypoint Dr, Carrollton, TX 75006",
        "name": "a8bae65b9873"
      },
      "type": "Feature"
    },
    {
      "geometry": {
        "coordinates": [
          -111.881889,
          33.636251
        ],
        "type": "Point"
      },
      "properties": {
        "address": "16585 N 92nd St Unit 104, Scottsdale, AZ 85260",
        "name": "bfdb9518ac95"
      },
      "type": "Feature"
    },
    {
      "geometry": {
        "coordinates": [
          -105.011309,
          39.663508
        ],
        "type": "Point"
      },
      "properties": {
        "address": "2931 S Tejon St B, Englewood, CO 80110",
        "name": "52aa646535f5"
      },
      "type": "Feature"
    },
    {
      "geometry": {
        "coordinates": [
          -97.695653,
          30.300298
        ],
        "type": "Point"
      },
      "properties": {
        "address": "1901 E 51st St Unit 110, Austin, TX 78723",
        "name": "261ae7ea6339"
      },
      "type": "Feature"
    },
    {
      "geometry": {
        "coordinates": [
          -56.191262,
          -34.877283
        ],
        "type": "Point"
      },
      "properties": {
        "address": "Vilardebó 1272, 11800 Montevideo",
        "name": "0df9045afe07"
      },
      "type": "Feature"
    },
    {
      "geometry": {
        "coordinates": [
          -70.648739,
          -33.370106
        ],
        "type": "Point"
      },
      "properties": {
        "address": "El Rosal 5187, Huechuraba",
        "name": "548074c4fcb4"
      },
      "type": "Feature"
    },
    {
      "geometry": {
        "coordinates": [
          -95.391145,
          29.790621
        ],
        "type": "Point"
      },
      "properties": {
        "address": "620 E 11th St, Houston, TX 77008",
        "name": "78a66e4daaab"
      },
      "type": "Feature"
    },
    {
      "geometry": {
        "coordinates": [
          2.192085,
          41.393406
        ],
        "type": "Point"
      },
      "properties": {
        "address": "Carrer de Llull, 48, 08005 Barcelona",
        "name": "de341974624c"
      },
      "type": "Feature"
    },
    {
      "geometry": {
        "coordinates": [
          2.336543,
          48.922772
        ],
        "type": "Point"
      },
      "properties": {
        "address": "La Cité du Cinéma, 20 rue Ampère 93210 Saint-Denis",
        "name": "d245844e5456"
      },
      "type": "Feature"
    },
    {
      "geometry": {
        "coordinates": [
          145.023708,
          -37.753728
        ],
        "type": "Point"
      },
      "properties": {
        "address": "7 Kerr St, Preston VIC 3072",
        "name": "fd4eb7ad0077"
      },
      "type": "Feature"
    },
    {
      "geometry": {
        "coordinates": [
          -118.371849,
          34.236713
        ],
        "type": "Point"
      },
      "properties": {
        "address": "11058 Randall St, Sun Valley, CA 91352",
        "name": "c4c2d74e443c"
      },
      "type": "Feature"
    },
    {
      "geometry": {
        "coordinates": [
          -79.52499,
          43.610894
        ],
        "type": "Point"
      },
      "properties": {
        "address": "20 Torlake Crescent, Etobicoke, ON M8Z 1B3",
        "name": "6be7c0e5c445"
      },
      "type": "Feature"
    },
    {
      "geometry": {
        "coordinates": [
          -75.584087,
          45.456169
        ],
        "type": "Point"
      },
      "properties": {
        "address": "1010 Polytek St Unit 10, Gloucester, ON K1J 9H9",
        "name": "1063ab791d41"
      },
      "type": "Feature"
    },
    {
      "geometry": {
        "coordinates": [
          28.905557,
          41.159487
        ],
        "type": "Point"
      },
      "properties": {
        "address": "Mithatpaşa, Kumsu Sk. No:11, 34075 Eyüpsultan/İstanbul",
        "name": "8f5dab63056c"
      },
      "type": "Feature"
    },
    {
      "geometry": {
        "coordinates": [
          -8.521437,
          42.911032
        ],
        "type": "Point"
      },
      "properties": {
        "address": "Rua M Angeles Gandara 12, Nave C19, 15890 Santiago de Compostela, A Coruña",
        "name": "718db43edbab"
      },
      "type": "Feature"
    },
    {
      "geometry": {
        "coordinates": [
          -5.99992,
          37.398351
        ],
        "type": "Point"
      },
      "properties": {
        "address": "C. Curtidurías, 12b, 41002 Sevilla, EspagneC. Curtidurías, 12b, 41002 Sevilla",
        "name": "6f046ae756cb"
      },
      "type": "Feature"
    },
    {
      "geometry": {
        "coordinates": [
          -0.46234,
          39.513588
        ],
        "type": "Point"
      },
      "properties": {
        "address": "Plaza Avilés 1, 46988 Paterna",
        "name": "cc4a8e5a681c"
      },
      "type": "Feature"
    },
    {
      "geometry": {
        "coordinates": [
          -3.61118,
          40.552357
        ],
        "type": "Point"
      },
      "properties": {
        "address": "Av. Montes de Oca 19, Nave 23, 28703 San Sebastián de los Reyes",
        "name": "7e94d8df24c5"
      },
      "type": "Feature"
    },
    {
      "geometry": {
        "coordinates": [
          2.235243,
          41.430511
        ],
        "type": "Point"
      },
      "properties": {
        "address": "Calle Eduard Maristany 396, 08918 Badalona",
        "name": "5aacead11001"
      },
      "type": "Feature"
    },
    {
      "geometry": {
        "coordinates": [
          4.898835,
          45.756379
        ],
        "type": "Point"
      },
      "properties": {
        "address": "Pôle Pixel 36 rue Emile Decorps 69100 Villeurbanne",
        "name": "825ea67f46a9"
      },
      "type": "Feature"
    },
    {
      "geometry": {
        "coordinates": [
          -0.359651,
          51.540075
        ],
        "type": "Point"
      },
      "properties": {
        "address": "The Metropolitan Centre, Bristol Road, Greenford UB6 8GD",
        "name": "9e08b9e17dbb"
      },
      "type": "Feature"
    },
    {
      "geometry": {
        "coordinates": [
          -0.556792,
          44.85216
        ],
        "type": "Point"
      },
      "properties": {
        "address": "2 quai de Brazza 33100 Bordeaux",
        "name": "c1fa11545fbe"
      },
      "type": "Feature"
    },
    {
      "geometry": {
        "coordinates": [
          -1.673675,
          48.086118
        ],
        "type": "Point"
      },
      "properties": {
        "address": "107 avenue Henri Fréville 35200 Rennes",
        "name": "e571db07dfe0"
      },
      "type": "Feature"
    },
    {
      "geometry": {
        "coordinates": [
          3.861975,
          43.573077
        ],
        "type": "Point"
      },
      "properties": {
        "address": "48 rue Claude Balbastre 34070 Montpellier",
        "name": "fb7018ad1acc"
      },
      "type": "Feature"
    },
    {
      "geometry": {
        "coordinates": [
          5.420894,
          43.322322
        ],
        "type": "Point"
      },
      "properties": {
        "address": "6 boulevard Gueidon 13013 Marseille",
        "name": "0e97b7f43e53"
      },
      "type": "Feature"
    },
    {
      "geometry": {
        "coordinates": [
          -74.005445,
          40.726278
        ],
        "type": "Point"
      },
      "properties": {
        "address": "150 Varick St, New York, NY 10013",
        "name": "4bcfb51b92fa"
      },
      "type": "Feature"
    },
    {
      "geometry": {
        "coordinates": [
          -87.66641,
          41.887535
        ],
        "type": "Point"
      },
      "properties": {
        "address": "1554 W Carroll Ave, Chicago, IL 60607",
        "name": "9df3fec32e1b"
      },
      "type": "Feature"
    },
    {
      "geometry": {
        "coordinates": [
          -97.002157,
          32.915727
        ],
        "type": "Point"
      },
      "properties": {
        "address": "8000 Jetstar Dr, Irving, TX 75063",
        "name": "7ddf403a04a0"
      },
      "type": "Feature"
    },
    {
      "geometry": {
        "coordinates": [
          -90.188473,
          29.955198
        ],
        "type": "Point"
      },
      "properties": {
        "address": "837 Distributors Row, New Orleans, LA 70123",
        "name": "a3a29917917e"
      },
      "type": "Feature"
    },
    {
      "geometry": {
        "coordinates": [
          -84.42237,
          33.787211
        ],
        "type": "Point"
      },
      "properties": {
        "address": "1250 Menlo Dr NW, Atlanta, GA 30318",
        "name": "eac7ffb08a51"
      },
      "type": "Feature"
    },
    {
      "geometry": {
        "coordinates": [
          -106.610001,
          35.121952
        ],
        "type": "Point"
      },
      "properties": {
        "address": "3521 Bryn Mawr Dr NE, Albuquerque, NM 87107",
        "name": "ebbf7ca5b390"
      },
      "type": "Feature"
    },
    {
      "geometry": {
        "coordinates": [
          -122.972934,
          49.189664
        ],
        "type": "Point"
      },
      "properties": {
        "address": "5560 Trapp Ave, Burnaby, BC V3N 5G4",
        "name": "40a92cf89d8a"
      },
      "type": "Feature"
    },
    {
      "geometry": {
        "coordinates": [
          -79.343516,
          43.726882
        ],
        "type": "Point"
      },
      "properties": {
        "address": "900A Don Mills Rd, North York, Toronto, ON M3C 1V6",
        "name": "5001d7a66a06"
      },
      "type": "Feature"
    },
    {
      "geometry": {
        "coordinates": [
          -113.994522,
          50.957645
        ],
        "type": "Point"
      },
      "properties": {
        "address": "2880 107 Ave SE, Unit 118, Calgary, AB T2Z 3R7",
        "name": "e64b40ca201e"
      },
      "type": "Feature"
    },
    {
      "geometry": {
        "coordinates": [
          -63.602347,
          44.714215
        ],
        "type": "Point"
      },
      "properties": {
        "address": "192 Joseph Zatzman Drive, Suite 5, Dartmouth, NS B3B 1N4",
        "name": "525ef438bd31"
      },
      "type": "Feature"
    },
    {
      "geometry": {
        "coordinates": [
          28.140895,
          -25.945118
        ],
        "type": "Point"
      },
      "properties": {
        "address": "79 Reedbuck Cres, Randjespark, Midrand, 1685",
        "name": "32ddb3521a01"
      },
      "type": "Feature"
    },
    {
      "geometry": {
        "coordinates": [
          18.511071,
          -33.866508
        ],
        "type": "Point"
      },
      "properties": {
        "address": "Racecourse Rd, Milnerton Business Park, Phase 6, Milnerton, Cape Town, 7441",
        "name": "15b2720b559c"
      },
      "type": "Feature"
    },
    {
      "geometry": {
        "coordinates": [
          151.148423,
          -33.803852
        ],
        "type": "Point"
      },
      "properties": {
        "address": "1/706 Mowbray Rd W, Lane Cove North NSW 2066",
        "name": "d2cb6ea76785"
      },
      "type": "Feature"
    },
    {
      "geometry": {
        "coordinates": [
          144.909938,
          -37.823377
        ],
        "type": "Point"
      },
      "properties": {
        "address": "4/344 Lorimer St, Port Melbourne VIC 3207",
        "name": "636f46484fb7"
      },
      "type": "Feature"
    },
    {
      "geometry": {
        "coordinates": [
          153.312907,
          -27.910494
        ],
        "type": "Point"
      },
      "properties": {
        "address": "Warner Roadshow Studios, Pacific Highway, Oxenford QLD 4210",
        "name": "e9e730355401"
      },
      "type": "Feature"
    },
    {
      "geometry": {
        "coordinates": [
          174.731111,
          -36.855229
        ],
        "type": "Point"
      },
      "properties": {
        "address": "318 Richmond Road, Grey Lynn, Auckland 1021",
        "name": "efc20183fa01"
      },
      "type": "Feature"
    },
    {
      "geometry": {
        "coordinates": [
          4.402849,
          50.851631
        ],
        "type": "Point"
      },
      "properties": {
        "address": "Boulevard Auguste Reyers 52 1044 Schaerbeek",
        "name": "747ce6730d6d"
      },
      "type": "Feature"
    },
    {
      "geometry": {
        "coordinates": [
          4.452299,
          50.396699
        ],
        "type": "Point"
      },
      "properties": {
        "address": "Rue Jules Destrée 52 6001 Charleroi",
        "name": "11ce1dd61d47"
      },
      "type": "Feature"
    },
    {
      "geometry": {
        "coordinates": [
          -3.114168,
          51.501939
        ],
        "type": "Point"
      },
      "properties": {
        "address": "Capital Business Park, Unit J2, Cardiff CF3 2PX",
        "name": "e4376f879dff"
      },
      "type": "Feature"
    },
    {
      "geometry": {
        "coordinates": [
          -0.421483,
          51.692993
        ],
        "type": "Point"
      },
      "properties": {
        "address": "Door 27, Warner Bros. Studios, Aerodrome Way, Watford WD25 7GN",
        "name": "9030d754802e"
      },
      "type": "Feature"
    },
    {
      "geometry": {
        "coordinates": [
          -5.912494,
          54.626395
        ],
        "type": "Point"
      },
      "properties": {
        "address": "Loughside Industrial Park Unit 9, Belfast, BT3 9JA",
        "name": "7e30339410ef"
      },
      "type": "Feature"
    },
    {
      "geometry": {
        "coordinates": [
          -2.197856,
          53.470341
        ],
        "type": "Point"
      },
      "properties": {
        "address": "1B, Space Studios, Vaughan St, Manchester M12 5FQ",
        "name": "eb598440f5df"
      },
      "type": "Feature"
    },
    {
      "geometry": {
        "coordinates": [
          -6.125276,
          53.19659
        ],
        "type": "Point"
      },
      "properties": {
        "address": "The Lodge Ardmore Studios, Herbert Rd, Killarney, Bray, Wicklow",
        "name": "539a427722c0"
      },
      "type": "Feature"
    },
    {
      "geometry": {
        "coordinates": [
          2.368033,
          48.904529
        ],
        "type": "Point"
      },
      "properties": {
        "address": "45 avenue Victor Hugo Bâtiment 217 93300 Aubervilliers",
        "name": "2ea4d93e4523"
      },
      "type": "Feature"
    },
    {
      "geometry": {
        "coordinates": [
          -118.337214,
          34.100245
        ],
        "type": "Point"
      },
      "properties": {
        "address": "6735 Selma Ave, Los Angeles, CA 90028",
        "name": "6eeefd4179c2"
      },
      "type": "Feature"
    },
    {
      "geometry": {
        "coordinates": [
          -84.514812,
          33.47409
        ],
        "type": "Point"
      },
      "properties": {
        "address": "500 Sandy Creek Rd, Building 2004, Suite 103, Fayetteville, GA 30214",
        "name": "cbee72f41425"
      },
      "type": "Feature"
    },
    {
      "geometry": {
        "coordinates": [
          -118.593152,
          34.181557
        ],
        "type": "Point"
      },
      "properties": {
        "address": "6101 Variel Ave, Woodland Hills, CA 91367",
        "name": "72dcf2a317c7"
      },
      "type": "Feature"
    },
    {
      "geometry": {
        "coordinates": [
          -0.12059,
          51.54035
        ],
        "type": "Point"
      },
      "properties": {
        "address": "Carol St, Islington, London NW1 0HT",
        "name": "faadecb5920d"
      },
      "type": "Feature"
    },
    {
      "geometry": {
        "coordinates": [
          -118.347983,
          34.168004
        ],
        "type": "Point"
      },
      "properties": {
        "address": "3727 W Magnolia Blvd, Burbank, CA 91505",
        "name": "42f5ccf8bb1a"
      },
      "type": "Feature"
    },
    {
      "geometry": {
        "coordinates": [
          2.365513,
          48.875304
        ],
        "type": "Point"
      },
      "properties": {
        "address": "8 rue de l'Hôpital Saint-Louis 75010 Paris",
        "name": "414629faa017"
      },
      "type": "Feature"
    },
    {
      "geometry": {
        "coordinates": [
          138.624878,
          -34.927122
        ],
        "type": "Point"
      },
      "properties": {
        "address": "26 Clarke St, Norwood SA 5067",
        "name": "39c017abd88a"
      },
      "type": "Feature"
    },
    {
      "geometry": {
        "coordinates": [
          2.537377,
          48.836604
        ],
        "type": "Point"
      },
      "properties": {
        "address": "3 boulevard Georges Méliès 94350 Villiers-sur-Marne",
        "name": "a02de10c8aa1"
      },
      "type": "Feature"
    },
    {
      "geometry": {
        "coordinates": [
          2.338732,
          48.92747
        ],
        "type": "Point"
      },
      "properties": {
        "address": "2 Boulevard de la Libération, Bâtiment A2, 93200 Saint-Denis",
        "name": "21250a5a7e86"
      },
      "type": "Feature"
    },
    {
      "geometry": {
        "coordinates": [
          127.045101,
          37.509986
        ],
        "type": "Point"
      },
      "properties": {
        "address": "112-14 Samseong-dong, Gangnam-gu, Seoul",
        "name": "2935284ad2b0"
      },
      "type": "Feature"
    },
    {
      "geometry": {
        "coordinates": [
          2.353991,
          48.836669
        ],
        "type": "Point"
      },
      "properties": {
        "address": "17 rue de la Reine Blanche 75013 Paris",
        "name": "bda06e428697"
      },
      "type": "Feature"
    },
    {
      "geometry": {
        "coordinates": [
          -118.374843,
          34.033026
        ],
        "type": "Point"
      },
      "properties": {
        "address": "2762 S La Cienega Blvd, Los Angeles, CA 90034",
        "name": "37f57c3c895f"
      },
      "type": "Feature"
    },
    {
      "geometry": {
        "coordinates": [
          80.235471,
          13.0527
        ],
        "type": "Point"
      },
      "properties": {
        "address": "18, Porur Sundaram St, Darmapuram, T. Nagar, Chennai, Tamil Nadu 600017",
        "name": "5f2cb2e4a929"
      },
      "type": "Feature"
    },
    {
      "geometry": {
        "coordinates": [
          11.934004,
          57.708076
        ],
        "type": "Point"
      },
      "properties": {
        "address": "Polstjärnegatan 14, 417 56 Göteborg",
        "name": "49f6e1831f1e"
      },
      "type": "Feature"
    },
    {
      "geometry": {
        "coordinates": [
          -84.176355,
          34.118557
        ],
        "type": "Point"
      },
      "properties": {
        "address": "554 W Main St Building B Suite 200, Buford, GA30518",
        "name": "8a095299785a"
      },
      "type": "Feature"
    },
    {
      "geometry": {
        "coordinates": [
          76.850265,
          43.250801
        ],
        "type": "Point"
      },
      "properties": {
        "address": "Rayimbek Ave 486Б, Almaty",
        "name": "d2a5b9811246"
      },
      "type": "Feature"
    },
    {
      "geometry": {
        "coordinates": [
          21.002823,
          52.1592
        ],
        "type": "Point"
      },
      "properties": {
        "address": "Poleczki 29, 02-822 Warszawa",
        "name": "1b85c63cc232"
      },
      "type": "Feature"
    },
    {
      "geometry": {
        "coordinates": [
          174.755148,
          -36.849324
        ],
        "type": "Point"
      },
      "properties": {
        "address": "29 Sale Street, Auckland CBD, Auckland 1010",
        "name": "cdaee893c163"
      },
      "type": "Feature"
    },
    {
      "geometry": {
        "coordinates": [
          174.81219,
          -41.246265
        ],
        "type": "Point"
      },
      "properties": {
        "address": "5/7 McCormack Place, Ngauranga, Wellington 6035",
        "name": "72efdc456e0f"
      },
      "type": "Feature"
    },
    {
      "geometry": {
        "coordinates": [
          -58.439807,
          -34.58305
        ],
        "type": "Point"
      },
      "properties": {
        "address": "Gorriti 5842, C1414 BKJ, Buenos Aires",
        "name": "c13b3e21afe9"
      },
      "type": "Feature"
    },
    {
      "geometry": {
        "coordinates": [
          2.404106,
          48.811929
        ],
        "type": "Point"
      },
      "properties": {
        "address": "39 rue Maurice Gunsbourg 94205 Ivry-sur-Seine",
        "name": "46c558e1ec3c"
      },
      "type": "Feature"
    },
    {
      "geometry": {
        "coordinates": [
          -8.004208,
          31.666493
        ],
        "type": "Point"
      },
      "properties": {
        "address": "Ecole Supérieure des Arts Visuels 40002 Marrakech",
        "name": "55adf896499e"
      },
      "type": "Feature"
    },
    {
      "geometry": {
        "coordinates": [
          -117.169416,
          32.72805
        ],
        "type": "Point"
      },
      "properties": {
        "address": "2230 Columbia St, San Diego, CA 92101",
        "name": "cdf30604e88e"
      },
      "type": "Feature"
    },
    {
      "geometry": {
        "coordinates": [
          139.733622,
          35.684408
        ],
        "type": "Point"
      },
      "properties": {
        "address": "5-5 Kojimac, hi, Chiyoda-ku, 102-0083, Tokyo",
        "name": "fbb7e2561e9c"
      },
      "type": "Feature"
    },
    {
      "geometry": {
        "coordinates": [
          135.499674,
          34.712883
        ],
        "type": "Point"
      },
      "properties": {
        "address": "5-3-1 Toyosaki, Kita-ku, Osaka 531-0072",
        "name": "5844f22a575a"
      },
      "type": "Feature"
    },
    {
      "geometry": {
        "coordinates": [
          13.45304,
          52.503415
        ],
        "type": "Point"
      },
      "properties": {
        "address": "Rotherstraße 5, 10245 Berlin",
        "name": "15a62355f254"
      },
      "type": "Feature"
    },
    {
      "geometry": {
        "coordinates": [
          2.188505,
          41.395697
        ],
        "type": "Point"
      },
      "properties": {
        "address": "Carrer de Joan d'Àustria, 116, 08018 Barcelona",
        "name": "83ecb708d758"
      },
      "type": "Feature"
    },
    {
      "geometry": {
        "coordinates": [
          2.38882,
          48.874814
        ],
        "type": "Point"
      },
      "properties": {
        "address": "130 rue de Belleville 75020 Paris",
        "name": "fea345d23f45"
      },
      "type": "Feature"
    },
    {
      "geometry": {
        "coordinates": [
          -0.27396,
          51.501035
        ],
        "type": "Point"
      },
      "properties": {
        "address": "Unit 10, Roslin Square, Roslin Rd, London W3 8DH",
        "name": "6c662d53f00c"
      },
      "type": "Feature"
    },
    {
      "geometry": {
        "coordinates": [
          -123.025238,
          49.258685
        ],
        "type": "Point"
      },
      "properties": {
        "address": "3645 Grandview Hwy, Vancouver, BC V5M 2G7",
        "name": "9faa9c930aa8"
      },
      "type": "Feature"
    },
    {
      "geometry": {
        "coordinates": [
          -79.419321,
          43.636538
        ],
        "type": "Point"
      },
      "properties": {
        "address": "1 Atlantic Ave, Suite110, Toronto, ON M6K 3E7",
        "name": "8f2051081aa4"
      },
      "type": "Feature"
    },
    {
      "geometry": {
        "coordinates": [
          -79.462595,
          46.313309
        ],
        "type": "Point"
      },
      "properties": {
        "address": "575 Fraser St, North Bay, ON P1B 3X3",
        "name": "95544f89462b"
      },
      "type": "Feature"
    },
    {
      "geometry": {
        "coordinates": [
          2.333888,
          48.891337
        ],
        "type": "Point"
      },
      "properties": {
        "address": "42 rue Eugène Carrière 75018 Paris",
        "name": "0f491691c1ca"
      },
      "type": "Feature"
    },
    {
      "geometry": {
        "coordinates": [
          4.834042,
          45.757294
        ],
        "type": "Point"
      },
      "properties": {
        "address": "17 place Bellecour 69002 Lyon",
        "name": "c0351e7eb743"
      },
      "type": "Feature"
    },
    {
      "geometry": {
        "coordinates": [
          2.394004,
          48.870578
        ],
        "type": "Point"
      },
      "properties": {
        "address": "282 rue des Pyrénées 75020 Paris",
        "name": "aabacc71134c"
      },
      "type": "Feature"
    },
    {
      "geometry": {
        "coordinates": [
          151.1973,
          -33.783876
        ],
        "type": "Point"
      },
      "properties": {
        "address": "Chatswood Business Park, 9U/175 Lower Gibbes St, Chatswood East NSW 2067",
        "name": "9d8d8d2e0c4b"
      },
      "type": "Feature"
    },
    {
      "geometry": {
        "coordinates": [
          -118.394966,
          34.199681
        ],
        "type": "Point"
      },
      "properties": {
        "address": "12023 Vose St Unit 23, North Hollywood, CA 91605",
        "name": "f6b8b385f335"
      },
      "type": "Feature"
    },
    {
      "geometry": {
        "coordinates": [
          16.339604,
          48.215435
        ],
        "type": "Point"
      },
      "properties": {
        "address": "Ottakringer Str. 16, 1170 Wien",
        "name": "2322497639c8"
      },
      "type": "Feature"
    },
    {
      "geometry": {
        "coordinates": [
          10.758086,
          59.929683
        ],
        "type": "Point"
      },
      "properties": {
        "address": "Thorvald Meyers Gate 7, 0555 Oslo",
        "name": "052ef036e589"
      },
      "type": "Feature"
    },
    {
      "geometry": {
        "coordinates": [
          -118.449041,
          34.046268
        ],
        "type": "Point"
      },
      "properties": {
        "address": "11318 Santa Monica Blvd, Los Angeles, CA 90025",
        "name": "44d42c0789b7"
      },
      "type": "Feature"
    },
    {
      "geometry": {
        "coordinates": [
          144.950106,
          -37.831215
        ],
        "type": "Point"
      },
      "properties": {
        "address": "95 Buckhurst St, South Melbourne VIC 3205",
        "name": "1f0d3e1c8549"
      },
      "type": "Feature"
    },
    {
      "geometry": {
        "coordinates": [
          151.193285,
          -33.907394
        ],
        "type": "Point"
      },
      "properties": {
        "address": "42 Maddox St, Alexandria NSW 2015",
        "name": "27f00ba7239a"
      },
      "type": "Feature"
    },
    {
      "geometry": {
        "coordinates": [
          28.983767,
          41.099747
        ],
        "type": "Point"
      },
      "properties": {
        "address": "Seyrantepe Mahallesi, Narin Sk. No:3/A, 34418 Kâğıthane/İstanbul",
        "name": "b5871201856d"
      },
      "type": "Feature"
    },
    {
      "geometry": {
        "coordinates": [
          -118.330165,
          34.088804
        ],
        "type": "Point"
      },
      "properties": {
        "address": "957 Cole Ave, Los Angeles, CA 90038",
        "name": "bc9f6591dbd8"
      },
      "type": "Feature"
    },
    {
      "geometry": {
        "coordinates": [
          77.163843,
          28.65367
        ],
        "type": "Point"
      },
      "properties": {
        "address": "1st Floor, 28/56, Block 28, West Patel Nagar, Patel Nagar, Delhi, 110008",
        "name": "00b2fbb35b9c"
      },
      "type": "Feature"
    },
    {
      "geometry": {
        "coordinates": [
          -0.275762,
          51.523618
        ],
        "type": "Point"
      },
      "properties": {
        "address": "Westpoint, Unit 10, Trading Estate Rd, Alliance Rd, London W3 0RA",
        "name": "971f99597810"
      },
      "type": "Feature"
    },
    {
      "geometry": {
        "coordinates": [
          -73.997388,
          40.762744
        ],
        "type": "Point"
      },
      "properties": {
        "address": "599 11th Ave Ground Floor, New York, NY 10036",
        "name": "c4a191d9adbc"
      },
      "type": "Feature"
    },
    {
      "geometry": {
        "coordinates": [
          2.29737,
          48.812951
        ],
        "type": "Point"
      },
      "properties": {
        "address": "38 bis rue Paul Vaillant Couturier 92240 Malakoff",
        "name": "686261dfba0e"
      },
      "type": "Feature"
    },
    {
      "geometry": {
        "coordinates": [
          -95.463601,
          29.723773
        ],
        "type": "Point"
      },
      "properties": {
        "address": "1323 N 1st St, Bellaire, TX 77401",
        "name": "63393433dd31"
      },
      "type": "Feature"
    },
    {
      "geometry": {
        "coordinates": [
          151.216925,
          -33.94251
        ],
        "type": "Point"
      },
      "properties": {
        "address": "118 Wentworth Ave, Banksmeadow NSW 2019",
        "name": "a1e9574021c4"
      },
      "type": "Feature"
    },
    {
      "geometry": {
        "coordinates": [
          144.938244,
          -37.841541
        ],
        "type": "Point"
      },
      "properties": {
        "address": "195 Rouse St, Port Melbourne VIC 3207",
        "name": "cf05450c078b"
      },
      "type": "Feature"
    },
    {
      "geometry": {
        "coordinates": [
          -8.579914,
          41.145408
        ],
        "type": "Point"
      },
      "properties": {
        "address": "Rua do Freixo, 1071 A.3, 4300-219 Porto",
        "name": "c417118e00dc"
      },
      "type": "Feature"
    },
    {
      "geometry": {
        "coordinates": [
          -118.309744,
          33.837179
        ],
        "type": "Point"
      },
      "properties": {
        "address": "21151 S Western Ave Ste 100, Torrance, CA 90501",
        "name": "3952ded9f0f3"
      },
      "type": "Feature"
    },
    {
      "geometry": {
        "coordinates": [
          2.310369,
          48.931943
        ],
        "type": "Point"
      },
      "properties": {
        "address": "7-11 rue de l'Industrie 92230 Gennevilliers",
        "name": "116c9fca2614"
      },
      "type": "Feature"
    },
    {
      "geometry": {
        "coordinates": [
          103.754096,
          1.343513
        ],
        "type": "Point"
      },
      "properties": {
        "address": "1 Tampines North Dr. 1, #07-10, Singapour 528559",
        "name": "f475b0c6572e"
      },
      "type": "Feature"
    },
    {
      "geometry": {
        "coordinates": [
          103.680104,
          1.518429
        ],
        "type": "Point"
      },
      "properties": {
        "address": "7, Jalan Pertama 5, Pusat Perdagangan Danga Utama, 81300 Johor Bahru",
        "name": "922cc187402a"
      },
      "type": "Feature"
    },
    {
      "geometry": {
        "coordinates": [
          2.365565,
          48.909674
        ],
        "type": "Point"
      },
      "properties": {
        "address": "9 rue des Fillettes 93210 Saint-Denis",
        "name": "ddbdfdb78ade"
      },
      "type": "Feature"
    },
    {
      "geometry": {
        "coordinates": [
          -0.552182,
          44.814054
        ],
        "type": "Point"
      },
      "properties": {
        "address": "5/10 rue des Terres Neuves 33130 Bègles",
        "name": "209e1b2ec748"
      },
      "type": "Feature"
    },
    {
      "geometry": {
        "coordinates": [
          2.342331,
          48.896622
        ],
        "type": "Point"
      },
      "properties": {
        "address": "79 rue Henri Fabre 34130 Maugio",
        "name": "7e20f1e0d4e3"
      },
      "type": "Feature"
    },
    {
      "geometry": {
        "coordinates": [
          5.389752,
          43.309441
        ],
        "type": "Point"
      },
      "properties": {
        "address": "37 rue Guibal 13003 Marseille",
        "name": "076b492fa16e"
      },
      "type": "Feature"
    },
    {
      "geometry": {
        "coordinates": [
          4.399671,
          50.862832
        ],
        "type": "Point"
      },
      "properties": {
        "address": "Boulevard Général Wahis 16EB 1030 Schaerbeek",
        "name": "67ebb3d874cc"
      },
      "type": "Feature"
    },
    {
      "geometry": {
        "coordinates": [
          5.585865,
          50.632757
        ],
        "type": "Point"
      },
      "properties": {
        "address": "Rue de Mulhouse 36 4020 Liège",
        "name": "05ea09e8ad94"
      },
      "type": "Feature"
    },
    {
      "geometry": {
        "coordinates": [
          2.333794,
          48.917905
        ],
        "type": "Point"
      },
      "properties": {
        "address": "16 rue Cage 93400 Saint-Ouen",
        "name": "fe5f2de31505"
      },
      "type": "Feature"
    },
    {
      "geometry": {
        "coordinates": [
          13.402611,
          52.492073
        ],
        "type": "Point"
      },
      "properties": {
        "address": "Blücherstraße 28/29 10961 Berlin",
        "name": "aee76afd92c1"
      },
      "type": "Feature"
    },
    {
      "geometry": {
        "coordinates": [
          11.60936,
          48.133387
        ],
        "type": "Point"
      },
      "properties": {
        "address": "Kirchenstraße 89B 81675 München",
        "name": "12d1d6bde8b7"
      },
      "type": "Feature"
    },
    {
      "geometry": {
        "coordinates": [
          34.791176,
          32.063258
        ],
        "type": "Point"
      },
      "properties": {
        "address": "Nirim St 10, Tel Aviv-Yafo",
        "name": "2ba9a46d04a3"
      },
      "type": "Feature"
    },
    {
      "geometry": {
        "coordinates": [
          2.357951,
          48.907047
        ],
        "type": "Point"
      },
      "properties": {
        "address": "113-121 avenue du Président Wilson 93210 La Plaine Saint-Denis",
        "name": "51d230dda67b"
      },
      "type": "Feature"
    },
    {
      "geometry": {
        "coordinates": [
          4.325893,
          50.821554
        ],
        "type": "Point"
      },
      "properties": {
        "address": "1190 Avenue Van Volxem 1190 Bruxelles",
        "name": "cf3deb70448b"
      },
      "type": "Feature"
    },
    {
      "geometry": {
        "coordinates": [
          13.417032,
          52.465036
        ],
        "type": "Point"
      },
      "properties": {
        "address": "Oberlandstraße 13-14 12099 Berlin",
        "name": "41eec85a1a2b"
      },
      "type": "Feature"
    },
    {
      "geometry": {
        "coordinates": [
          14.407174,
          50.051147
        ],
        "type": "Point"
      },
      "properties": {
        "address": "Křížová 2601/2 150 00 Prague 5, Smíchov",
        "name": "1001d6c8de16"
      },
      "type": "Feature"
    },
    {
      "geometry": {
        "coordinates": [
          12.148268,
          49.673413
        ],
        "type": "Point"
      },
      "properties": {
        "address": "Altstraße 9 92637 Weiden",
        "name": "462cb86c4d65"
      },
      "type": "Feature"
    },
    {
      "geometry": {
        "coordinates": [
          -118.272358,
          34.150348
        ],
        "type": "Point"
      },
      "properties": {
        "address": "757 West California Ave Building 4, Glendale, CA 91203",
        "name": "8cb871bd3012"
      },
      "type": "Feature"
    },
    {
      "geometry": {
        "coordinates": [
          11.525789,
          48.096041
        ],
        "type": "Point"
      },
      "properties": {
        "address": "Gebäude 75 Kistlerhofstraße 70 81379 München",
        "name": "51b88d8de12a"
      },
      "type": "Feature"
    },
    {
      "geometry": {
        "coordinates": [
          2.398981,
          48.839546
        ],
        "type": "Point"
      },
      "properties": {
        "address": "74 boulevard de Reuilly 75012 Paris",
        "name": "9cad04bcb2c1"
      },
      "type": "Feature"
    },
    {
      "geometry": {
        "coordinates": [
          6.057223,
          46.224561
        ],
        "type": "Point"
      },
      "properties": {
        "address": "Rue du Pré-Bouvier 8, 1242 Satigny",
        "name": "86a175d450ec"
      },
      "type": "Feature"
    },
    {
      "geometry": {
        "coordinates": [
          8.397997,
          47.403517
        ],
        "type": "Point"
      },
      "properties": {
        "address": "Bergstrasse 23, 8953 Dietikon",
        "name": "bab7a4278d5b"
      },
      "type": "Feature"
    },
    {
      "geometry": {
        "coordinates": [
          -3.624024,
          40.438524
        ],
        "type": "Point"
      },
      "properties": {
        "address": "C. de Albasanz, 59, 28037 Madrid",
        "name": "64e25910f49d"
      },
      "type": "Feature"
    },
    {
      "geometry": {
        "coordinates": [
          -15.42018,
          28.117109
        ],
        "type": "Point"
      },
      "properties": {
        "address": "Av. Alcalde José Ramirez Bethencourt, 17, 35004 Las Palmas de Gran Canaria, Las Palmas",
        "name": "f77af1981a06"
      },
      "type": "Feature"
    },
    {
      "geometry": {
        "coordinates": [
          23.749431,
          37.899854
        ],
        "type": "Point"
      },
      "properties": {
        "address": "Ermou 39, Elliniko 167 77",
        "name": "cabebded7e60"
      },
      "type": "Feature"
    },
    {
      "geometry": {
        "coordinates": [
          -122.92212,
          49.254617
        ],
        "type": "Point"
      },
      "properties": {
        "address": "8363 Lougheed Hwy, Burnaby, BC V5A 1X3",
        "name": "157e66527218"
      },
      "type": "Feature"
    },
    {
      "geometry": {
        "coordinates": [
          -79.511482,
          43.616288
        ],
        "type": "Point"
      },
      "properties": {
        "address": "800 Islington Ave, Etobicoke, ON M8Z 6A1",
        "name": "4c4a7dbd938c"
      },
      "type": "Feature"
    },
    {
      "geometry": {
        "coordinates": [
          -113.950269,
          50.98528
        ],
        "type": "Point"
      },
      "properties": {
        "address": "5750 76 Ave SE Unit 50, Calgary, AB T2C 5N5",
        "name": "bb7a10ced936"
      },
      "type": "Feature"
    },
    {
      "geometry": {
        "coordinates": [
          -63.575863,
          44.723127
        ],
        "type": "Point"
      },
      "properties": {
        "address": "315 Wilkinson Ave #1, Dartmouth, NS B3B",
        "name": "a78aab695903"
      },
      "type": "Feature"
    },
    {
      "geometry": {
        "coordinates": [
          -97.21078,
          49.926972
        ],
        "type": "Point"
      },
      "properties": {
        "address": "2073 Logan Ave #11, Winnipeg, MB R2R 0J1",
        "name": "055a85b4f509"
      },
      "type": "Feature"
    },
    {
      "geometry": {
        "coordinates": [
          -80.987133,
          46.513657
        ],
        "type": "Point"
      },
      "properties": {
        "address": "922 Cambrian Heights Dr Unit 2, Sudbury, ON P3C 5M6",
        "name": "00a31681a427"
      },
      "type": "Feature"
    },
    {
      "geometry": {
        "coordinates": [
          -103.414798,
          20.694117
        ],
        "type": "Point"
      },
      "properties": {
        "address": "Paseo de Los Parques 4372, Universitaria, 45110 Zapopan, Jal.",
        "name": "7c41b79053df"
      },
      "type": "Feature"
    },
    {
      "geometry": {
        "coordinates": [
          2.194658,
          41.395714
        ],
        "type": "Point"
      },
      "properties": {
        "address": "Carrer d'Àlaba, 51, Bajos 3ª, 08005 Barcelona",
        "name": "353dc326067a"
      },
      "type": "Feature"
    }
  ]
}
